ID,ObsType,ObsID,Latitude,Longitude,Elevation(m),LocalDate,LocalTime,UTDate,UTTime,LimitingMag,SQMReading,SQMSerial,CloudCover,Constellation,SkyComment,LocationComment,Country,ZIP
215897,GAN,14230,44.0792,-121.366,1145.64,1/1/2020,18:02,1/2/2020,2:02,3,,,1/4 of sky,Taurus,,,United States - Oregon,97703
215898,GAN,14231,44.0792,-121.366,1145.77,1/1/2020,18:04,1/2/2020,2:04,4,,,1/4 of sky,Taurus,,,United States - Oregon,97703
215901,GAN,14235,39.6828,-76.4212,150.41,1/1/2020,21:22,1/2/2020,2:22,4,,,clear,Orion,,,United States - Maryland,21132
215902,GAN,14236,43.9805,-121.369,1214.29,1/1/2020,18:20,1/2/2020,2:20,2,,,1/2 of sky,Taurus,Slightly cloudy,Forest with dim lighting from houses far away,United States - Oregon,97702
215903,GAN,14238,44.0278,-121.322,1156.57,1/1/2020,21:55,1/2/2020,5:55,2,,,1/4 of sky,Taurus,,"Suburban, lots of Christmas lights and lit windows, lots of houses and trees.",United States - Oregon,97702
215904,GAN,14245,44.0548,-121.327,1105.16,1/2/2020,5:46,1/2/2020,13:46,3,,,clear,Taurus,,Urban,United States - Oregon,97703
215922,GAN,14268,44.012,-121.358,1159.09,1/2/2020,18:54,1/3/2020,2:54,2,,,1/4 of sky,Taurus,Small amount of clouds in south,,United States - Oregon,97702
215923,GAN,14272,44.0548,-121.327,1105.16,1/3/2020,4:25,1/3/2020,12:25,-9999,,,over 1/2 of sky,Taurus,,Urban,United States - Oregon,97703
215958,GAN,14321,44.0149,-121.342,1172.34,1/3/2020,18:46,1/4/2020,2:46,1,,,1/2 of sky,Taurus,A few hazy clouds,,United States - Oregon,97702
215960,GAN,14331,44.0548,-121.327,1105.16,1/4/2020,4:57,1/4/2020,12:57,-9999,,,over 1/2 of sky,Taurus,,Urban,United States - Oregon,97703
215980,GAN,14371,44.0078,-121.35,1177.88,1/5/2020,18:32,1/6/2020,2:32,1,,,1/2 of sky,Taurus,,,United States - Oregon,97702
215983,GAN,14380,44.0011,-121.302,1177.08,1/5/2020,20:55,1/6/2020,4:55,4,,,clear,Taurus,,,United States - Oregon,97702
215984,GAN,14381,44.0011,-121.302,1177.08,1/2/2020,21:17,1/3/2020,5:17,3,,,1/4 of sky,Taurus,,,United States - Oregon,97702
215985,GAN,14386,44.0548,-121.327,1105.16,1/6/2020,4:38,1/6/2020,12:38,-9999,,,over 1/2 of sky,Taurus,,Urban,United States - Oregon,97703
215986,SQM,14387,38.8878,-119.82,1466.48,1/6/2020,4:20,1/6/2020,12:20,6,21.39,,clear,Orion,light dome n,,United States - Nevada,89460
215989,GAN,14393,44.0214,-121.309,1144.86,1/5/2020,0:00,1/5/2020,8:00,3,,,1/2 of sky,Taurus,A lot of clouds,Suburban,United States - Oregon,97702
215991,GAN,14397,43.8694,-121.433,1283.94,1/1/2020,12:10,1/1/2020,20:10,2,,,over 1/2 of sky,Taurus,,,United States - Oregon,97770
216001,GAN,14409,39.9933,-105.087,1584.01,1/6/2020,20:00,1/7/2020,3:00,1,,,1/4 of sky,Perseus,,,United States - Colorado,80026
216003,GAN,14411,37.4984,-76.9933,38.6727,1/6/2020,20:47,1/7/2020,1:47,6,,,clear,Perseus,,Rural/ suburban area with little to no streetlights.,United States - Virginia,23124
216005,GAN,14421,44.0548,-121.327,1105.16,1/7/2020,4:30,1/7/2020,12:30,3,,,1/4 of sky,Taurus,,Urban,United States - Oregon,97703
216018,GAN,14454,44.0548,-121.327,1105.16,1/8/2020,4:26,1/8/2020,12:26,1,,,over 1/2 of sky,Taurus,,Urban,United States - Oregon,97703
216029,GAN,14484,39.0927,-84.4558,236.341,1/8/2020,21:08,1/9/2020,5:08,3,,,1/4 of sky,Perseus,"Clouds moving south west, moon is glowing and giving off glow, dark sky/kindof light horizon, no haze","Suburban, no snow, cold temperatures, cul-de-sac area, 5-6 streetlights around, trees present, buildings (two story houses) present, some peoples porch lights on (about 3?),",United States - Kentucky,41075
216032,GAN,14492,44.0548,-121.327,1105.16,1/9/2020,4:26,1/9/2020,12:26,4,,,clear,Taurus,,Urban,United States - Oregon,97703
216042,GAN,14520,44.0548,-121.327,1105.16,1/10/2020,4:25,1/10/2020,12:25,-9999,,,over 1/2 of sky,Orion,,Urban,United States - Oregon,97703
216063,SQM,14573,48.1821,-114.892,1077.45,1/11/2020,21:31,1/12/2020,4:31,6,21.57,661,clear,Perseus,0% clouds,21F degrees 0% snow cover   average of 8 readings  serial #_1.190661,United States - Montana,null
216064,SQM,14574,48.1924,-114.915,1074.89,1/11/2020,21:34,1/12/2020,4:34,6,21.55,661,clear,Perseus,0% clouds,19F degrees 0% snow cover   average of 8 readings  serial #_1.190661,United States - Montana,null
216065,SQM,14575,48.1779,-114.965,1062.93,1/11/2020,19:55,1/12/2020,2:55,6,21.55,661,clear,Perseus,0% clouds,23F degrees 0% snow cover   average of 8 readings  serial #_1.190661,United States - Montana,59925
216066,SQM,14576,48.1694,-114.965,1064.89,1/11/2020,19:50,1/12/2020,2:50,6,21.55,661,clear,Perseus,0% clouds,23F degrees 0% snow cover   average of 8 readings  serial #_1.190661,United States - Montana,null
216067,SQM,14577,48.1822,-114.891,1078.21,1/11/2020,20:15,1/12/2020,3:15,6,21.57,661,clear,Perseus,0% clouds,21F degrees 0% snow cover   average of 8 readings  serial #_1.190661,United States - Montana,null
216068,SQM,14578,48.1924,-114.915,1074.58,1/11/2020,20:03,1/12/2020,3:03,6,21.55,661,clear,Perseus,0% clouds,21F degrees 0% snow cover   average of 8 readings  serial #_1.190661,United States - Montana,null
216069,SQM,14579,48.1739,-114.338,1095.35,1/11/2020,21:36,1/12/2020,4:36,6,20.23,661,clear,Perseus,0% clouds,45F degrees 0% snow cover   average of 8 readings  serial #_1.190661,United States - Montana,59901
216070,SQM,14580,48.1739,-114.338,1095.31,11/20/2020,21:36,11/21/2020,4:36,6,20.23,661,clear,Pegasus,0% clouds,45F degrees 0% snow cover   average of 8 readings  serial #_1.190661,United States - Montana,59901
216089,GAN,14612,38.8968,-77.1124,112.238,11/12/2020,21:20,11/13/2020,2:20,-9999,,,over 1/2 of sky,Perseus,Cloudy,Urban. Nearby streetlight with ~3.5 lux.,United States - Virginia,22207
216126,GAN,14678,44.0548,-121.327,1105.16,1/14/2020,4:31,1/14/2020,12:31,1,,,1/2 of sky,Orion,,Urban,United States - Oregon,97703
216141,GAN,14708,37.2216,-113.281,984.405,1/14/2020,22:20,1/15/2020,5:20,4,,,clear,Orion,,,United States - Utah,84774
216143,GAN,14714,44.0548,-121.327,1105.16,1/15/2020,4:29,1/15/2020,12:29,2,,,1/2 of sky,Orion,,Urban,United States - Oregon,97703
216165,GAN,14750,42.2518,-76.2063,402.322,1/15/2020,19:37,1/16/2020,0:37,4,,,clear,Perseus,"no clouds , stars were very bright","Country area, next to a farm , very dark, no lights on",United States - New York,13811
216166,GAN,14752,35.1876,-111.655,2102.34,1/14/2020,22:47,1/15/2020,5:47,3,,,clear,Orion,,,United States - Arizona,86011
216188,GAN,14782,44.0548,-121.327,1105.16,1/16/2020,4:26,1/16/2020,12:26,-9999,,,over 1/2 of sky,Orion,,Urban,United States - Oregon,97703
216239,GAN,14843,43.0585,-87.9963,217.958,1/16/2020,19:39,1/17/2020,1:39,3,,,clear,Perseus,Clear.,"Suburb, snow cover, few trees, no direct light.",United States - Wisconsin,53213
216240,GAN,14845,43.0645,-87.9911,235.357,1/16/2020,20:08,1/17/2020,2:08,2,,,clear,Orion,No haze no clouds nothing but stars,6 street lights suburban 6 porch lights,United States - Wisconsin,53213
216241,GAN,14846,32.3127,-111.062,680.654,1/16/2020,19:30,1/17/2020,2:30,3,,,1/4 of sky,Perseus,,,United States - Arizona,85743
216242,GAN,14847,40.7934,-77.86,350.797,1/16/2020,21:48,1/17/2020,2:48,-9999,,,over 1/2 of sky,Orion,white out conditions with snow,,United States - Pennsylvania,16801
216243,GAN,14848,39.8864,-105.036,1662.8,1/16/2020,19:46,1/17/2020,2:46,-9999,,,clear,Perseus,There were no stars.,,United States - Colorado,80031
216244,GAN,14849,39.2533,-84.1132,267.019,1/16/2020,18:30,1/16/2020,23:30,-9999,,,over 1/2 of sky,Perseus,cloudy but could see a few stars.,suburban only 1 mile away from a Dollar General,United States - Ohio,45122
216245,GAN,14851,31.2709,-85.4584,92.5961,1/16/2020,18:54,1/17/2020,0:54,2,,,1/4 of sky,Orion,high thin clouds,unshielded streetlights in neighborhood,United States - Alabama,36303
216246,GAN,14852,39.6844,-76.4206,152.775,1/16/2020,22:25,1/17/2020,3:25,4,,,1/4 of sky,Perseus,,,United States - Maryland,21132
216247,GAN,14853,39.8569,-105.096,1682.15,1/16/2020,8:51,1/16/2020,15:51,-9999,,,clear,Perseus,,,United States - Colorado,80021
216248,GAN,14857,47.1424,-122.438,92.4705,1/16/2020,21:39,1/17/2020,5:39,-9999,,,over 1/2 of sky,Orion,"XR No Haze, Sky Glow-All directions, Clouds-All directions, heading north. Little to no stars visible at the time of viewing.","XR  Suburban, no snow, partly cloudy, multiple trees (at least 25), multiple streetlights (at least 15), multiple lights in windows/porch lights.",United States - Washington,98444
216263,GAN,14875,44.0548,-121.327,1105.16,1/17/2020,4:30,1/17/2020,12:30,-9999,,,over 1/2 of sky,Orion,,Urban,United States - Oregon,97703
216285,GAN,14898,40.7964,-77.8607,347.835,1/17/2020,10:32,1/17/2020,15:32,7,,,1/2 of sky,Perseus,,,United States - Pennsylvania,16802
216321,GAN,14947,43.0507,-88.0021,208.057,1/17/2020,18:48,1/18/2020,0:48,-9999,,,over 1/2 of sky,Orion,"Clouds, actively snowing.","Suburban, few lights, snow cover.",United States - Wisconsin,53213
216322,SQM,14948,40.8054,-77.9099,396.006,1/17/2020,20:00,1/18/2020,1:00,2,18.83,,clear,Perseus,"Slight haze, can see the stars","Dark Suburban neighborhood, some snow cover",United States - Pennsylvania,16803
216323,GAN,14950,40.8006,-77.8589,353.633,1/17/2020,20:50,1/18/2020,1:50,2,,,clear,Perseus,Not sure if theres a haze or not but the sky looked a little tinted,"Outside of Mifflin Hall, between Pollock Testing Center and Millennium Science Complex",United States - Pennsylvania,16802
216324,GAN,14951,40.798,-77.8586,347.272,1/17/2020,21:00,1/18/2020,2:00,-9999,,,clear,Perseus,,On hub lawn with some snow cover. Many streetlights around and several structures.,United States - Pennsylvania,16802
216325,GAN,14953,40.798,-77.8586,347.272,1/17/2020,21:00,1/18/2020,2:00,-9999,,,clear,Perseus,,On hub lawn with some snow cover. Many streetlights around and several structures.,United States - Pennsylvania,16802
216327,GAN,14955,35.1888,-111.659,2105.23,1/17/2020,19:23,1/18/2020,2:23,4,,,clear,Perseus,only glow is from the city,Relatively Suburban. In a dark sky city.,United States - Arizona,86011
216328,GAN,14956,43.0646,-87.9912,235.403,1/17/2020,20:42,1/18/2020,2:42,-9999,,,over 1/2 of sky,Orion,"Fully cloudy, snowing heavily","Suburban, 6 street lights, 7 porch lights",United States - Wisconsin,53213
216329,GAN,14961,35.2191,-111.633,2172.71,1/17/2020,21:16,1/18/2020,4:16,6,,,clear,Orion,"very clear, doesnt feel that cold, not really windy",was in an open field at the top of buffalo park main trail,United States - Arizona,86601
216330,GAN,14962,47.1424,-122.438,92.4705,1/17/2020,20:30,1/18/2020,4:30,-9999,,,clear,Perseus,"XR  The sky was in a complete haze, no stars visible, no cloud cover","XR  Suburban, no snow, at least 30 lights on, at least 30 trees",United States - Washington,98444
216331,GAN,14963,47.1424,-122.438,92.4705,1/17/2020,20:30,1/18/2020,4:30,-9999,,,clear,Perseus,"XR  The sky was in a complete haze, no stars visible, no cloud cover","XR  Suburban, no snow, at least 30 lights on, at least 30 trees",United States - Washington,98444
216332,GAN,14964,47.1423,-122.438,92.1935,1/17/2020,20:34,1/18/2020,4:34,-9999,,,clear,Orion,"XR  The sky was in a complete haze, no stars visible, no cloud cover. I'm sorry, the previous observation from today's date glitched on my computer. This is correct.","XR  Suburban, no snow, at least 30 lights on (combined street and porch lights), at least 30 trees in viewing distance.",United States - Washington,98444
216333,GAN,14965,47.152,-122.46,90.0286,1/17/2020,20:36,1/18/2020,4:36,-9999,,,clear,Orion,A.B: Complete Haze as there were no clouds at all and no stars could be seen from the front of my house.,"A.B: Few front porch lights on from the houses of my street. Only 1 dim street light on two houses down from mine, but besides that there is no other sources of light near me.",United States - Washington,98444
216370,GAN,15022,35.2299,-111.601,2280.37,1/17/2020,22:37,1/18/2020,5:37,4,,,clear,Orion,,,United States - Arizona,86004
216371,GAN,15023,35.1929,-111.655,2104.67,1/17/2020,21:10,1/18/2020,4:10,4,,,clear,Orion,No clouds in the sky at all.,I was in a relatively dark park located on the northern end of my university campus in Flagstaff.,United States - Arizona,86001
216378,GAN,15039,40.8029,-77.8674,364.139,1/18/2020,20:48,1/19/2020,1:48,-9999,,,over 1/2 of sky,Perseus,"Haze, Freezing rain",Suburban (location : State College)  Orange-yellowish lights from building  Some lights from cars around  Few trees,United States - Pennsylvania,16803
216380,GAN,15041,35.1808,-111.679,2148.77,1/18/2020,19:53,1/19/2020,2:53,3,,,clear,Orion,,In neighborhood with bright porch lights,United States - Arizona,86001
216381,GAN,15042,30.308,-98.2577,322.001,1/18/2020,20:57,1/19/2020,2:57,5,,,clear,Orion,,Headquarters for Pedernales State Park. Some shielded lights around building,United States - Texas,78636
216382,GAN,15043,39.9264,-105.084,1643.01,1/18/2020,19:57,1/19/2020,2:57,2,,,clear,Perseus,,,United States - Colorado,80020
216383,SQM,15044,32.6093,-110.734,1324.64,1/18/2020,20:48,1/19/2020,3:48,6,21.22,0bd6,clear,Orion,High humidity,Rural,United States - Arizona,85623
216384,GAN,15046,35.1847,-111.653,2110.18,1/18/2020,20:27,1/19/2020,3:27,5,,,clear,Orion,very few clouds in the sky.,A dark area that had a couple dim streetlights 50 ft away and a larger bright building about 100 yards away.,United States - Arizona,86011
216385,GAN,15047,47.1065,-122.384,118.202,1/18/2020,20:17,1/19/2020,4:17,-9999,,,over 1/2 of sky,Orion,A.B: The sky is nearly all covered in clouds and so its nearly impossible to see any stars.,A.B: Dim street line on and 3-4 porch lights in,United States - Washington,98446
216386,GAN,15049,39.9991,-105.249,1622.91,1/18/2020,20:41,1/19/2020,3:41,6,,,clear,Orion,Haze from city lights in the East,"Rural, no streetlights nearby, could see the haze from the city lights",United States - Colorado,80310
216387,GAN,15050,39.9989,-105.25,1624.89,1/18/2020,20:01,1/19/2020,3:01,3,,,clear,Orion,,Near to streetlamps and windows/buildings emitting light,United States - Colorado,80310
216389,GAN,15053,47.1424,-122.438,92.4705,1/18/2020,22:02,1/19/2020,6:02,1,,,1/4 of sky,Orion,XR Light haze in all directions with minor cloud cover,"XR Suburban, over 30 lights, over 30 trees",United States - Washington,98444
216453,GAN,15129,43.0507,-88.0021,208.057,1/18/2020,18:30,1/19/2020,0:30,-9999,,,over 1/2 of sky,Orion,Full clouds,"Suburban, snow cover, some trees, no immediate light.",United States - Wisconsin,53213
216455,GAN,15131,35.1844,-111.651,2106.31,1/18/2020,21:43,1/19/2020,4:43,4,,,clear,Orion,Mostly clear. No clouds in the direction of Orion.,"Suburban location. Some buildings, few trees. Balcony location with few lights in Dark Sky City.",United States - Arizona,86011
216461,GAN,15140,39.9787,-105.275,1858.16,1/18/2020,21:35,1/19/2020,4:35,3,,,clear,Perseus,"Clear skies, no wind, and sky glow from the city of Boulder to the east. Observations were taken far below the treeline to minimize light pollution from the nearby NCAR Mesa Laboratory.",,United States - Colorado,80309
216477,SQM,15158,41.5801,-71.4774,25.8656,1/19/2020,17:36,1/19/2020,22:36,7,22.0,,1/2 of sky,Orion,,,United States - Rhode Island,02852
216479,SQM,15160,41.5801,-71.4774,25.8656,1/19/2020,17:36,1/19/2020,22:36,7,22.0,,1/2 of sky,Orion,,,United States - Rhode Island,02852
216480,GAN,15161,41.5801,-71.4774,25.8656,1/19/2020,17:41,1/19/2020,22:41,2,,,1/2 of sky,Orion,,,United States - Rhode Island,02852
216485,GAN,15166,42.1668,-76.2078,410.573,1/19/2020,18:44,1/19/2020,23:44,-9999,,,over 1/2 of sky,Orion,Snowing and cloudy,Rural,United States - New York,13827
216491,GAN,15175,30.6385,-91.3575,8.50921,1/19/2020,19:25,1/20/2020,1:25,5,,,clear,Orion,,,United States - Louisiana,70749
216494,GAN,15178,43.0585,-87.9963,217.897,1/19/2020,19:31,1/20/2020,1:31,-9999,,,over 1/2 of sky,Orion,Full Clouds.,"Suburban, snow cover, one porch light, trees.",United States - Wisconsin,53213
216495,GAN,15179,30.147,-98.017,302.814,1/19/2020,19:35,1/20/2020,1:35,5,,,1/4 of sky,Orion,,Rapidly developing suburbs. No street lights,United States - Texas,78619
216496,GAN,15180,33.3175,-111.721,393.781,1/19/2020,18:37,1/20/2020,1:37,2,,,clear,Orion,Sky is pretty clear. I can see Orions Belt clearly. A little jazzy in some places.,Suburban neighborhood. 3 street lights. Cars passing by.,United States - Arizona,85295
216497,GAN,15181,30.4219,-91.1692,6.24872,1/19/2020,19:11,1/20/2020,1:11,3,,,clear,Perseus,Beautiful sky.,,United States - Louisiana,70803
216499,GAN,15184,40.8446,-73.7021,8.33156,1/19/2020,21:01,1/20/2020,2:01,-9999,,,clear,Orion,No haze or clouds.  Nothing in the sky.,"Suburban, snow on the ground, streetlight on across the street, driveway light on across the street, house light on across the street, porch light on next door.  There are trees along the sidewalk.",United States - New York,11050
216500,GAN,15187,39.9205,-105.087,1643.08,1/19/2020,19:35,1/20/2020,2:35,3,,,clear,Perseus,,,United States - Colorado,80020
216501,GAN,15188,35.1819,-111.654,2094.41,1/19/2020,20:25,1/20/2020,3:25,5,,,clear,Orion,The sky is very clean.,We watch the sky near our school's observatory. It is a dark place where it is very nice to watch the stars.,United States - Arizona,86011
216503,GAN,15190,46.2832,-119.299,124.146,1/19/2020,19:11,1/20/2020,3:11,4,,,clear,Orion,"dms-clear sky, not a cloud.","dms-suburban area, two street lights and porch lights from homes. very light traffic. quite area. no snow.",United States - Washington,99354
216504,GAN,15191,35.2004,-111.663,2195.55,1/19/2020,20:37,1/20/2020,3:37,6,,,clear,Perseus,The sky is very clear and can see the night sly glow.,"It's in the City overlook. Can see streets light, building lights, and cars moving.",United States - Arizona,86001
216505,GAN,15193,35.1738,-111.657,2107.33,1/19/2020,20:16,1/20/2020,3:16,5,,,clear,Perseus,A little Haze int he Northwest but the rest of the sky was very clear.,"On Soccer Fields, near some street and car lights. Also, some building lights were near.",United States - Arizona,86011
216506,GAN,15194,35.1919,-111.658,2105.96,1/19/2020,21:19,1/20/2020,4:19,3,,,clear,Orion,Clouds approaches from west?,,United States - Arizona,86001
216508,GAN,15196,41.3274,-113.73,1305.1,1/19/2020,21:27,1/20/2020,4:27,-9999,,,clear,Orion,,,United States - Utah,null
216509,GAN,15197,39.9535,-105.333,2156.43,1/19/2020,8:38,1/19/2020,15:38,4,,,clear,Perseus,no cloud cover; clear; haze to the west due to the city lights in the distance,"rural location in the middle of a mountain road; no streetlights or other lights, but noticeable city light pollution to the west; many trees and mountains surrounding",United States - Colorado,null
216510,GAN,15198,39.9535,-105.333,2156.43,1/19/2020,8:38,1/19/2020,15:38,3,,,clear,Orion,clear; no fog; some haze due to light pollution in the west,"rural area in mountains off the road; no street lights or other lights, but light pollution to the west; trees and mountains surrounding",United States - Colorado,null
216511,GAN,15199,47.1519,-122.46,90.7201,1/19/2020,20:42,1/20/2020,4:42,-9999,,,over 1/2 of sky,Orion,A.B: Mostly Cloudy with some fog as well so I was unable to see any stars again.,"A.B: ! dim street light, only 2 porch lights on, and military base light seem are bright enough for me to see them today.",United States - Washington,98444
216541,GAN,15237,44.0548,-121.327,1105.16,1/20/2020,4:32,1/20/2020,12:32,-9999,,,over 1/2 of sky,Orion,,Urban,United States - Oregon,97703
216578,GAN,15280,47.0979,-122.204,58.9988,1/19/2020,20:45,1/20/2020,4:45,-9999,,,over 1/2 of sky,Perseus,"The sky was almost nothing but clouds, one or two star lights were visible, but minimally. The sky was a blanket of clouds, to the extent that you couldn't tell which direction they moved. On the horizon, through the tree, the light from the moon was visible. It left a light fading effect in one corner of the visible sky.",A clearing outside of a suburban area; the nearest visible light was about half of a mile away; there was the woods on one side of the viewing area,United States - Washington,98360
216579,GAN,15281,47.0979,-122.204,58.9988,1/19/2020,20:40,1/20/2020,4:40,-9999,,,over 1/2 of sky,Perseus,"The sky was almost nothing but clouds, one or two star lights were visible, but minimally; The sky was a blanket of clouds, to the extent that you couldn't tell which direction they moved; On the horizon, through the tree, the light from the moon was visible; It left a light fading effect in one corner of the visible sky.",R.C. A clearing outside of a suburban area; the nearest visible light was about half of a mile away; there was the woods on one side of the viewing area,United States - Washington,98360
216585,GAN,15289,40.8266,-73.6968,31.5537,1/20/2020,15:11,1/20/2020,20:11,3,,,clear,Perseus,Very little spotty clouds. A few airplanes i almost mistook for stars,Lights on front steps. Two trees on either side on grassy patch. Front side walk,United States - New York,11050
216586,GAN,15290,40.8266,-73.6968,31.5537,1/20/2020,15:11,1/20/2020,20:11,3,,,clear,Perseus,Very little spotty clouds. A few airplanes i almost mistook for stars,Lights on front steps. Two trees on either side on grassy patch. Front side walk,United States - New York,11050
216604,GAN,15309,38.8226,-86.0351,208.474,1/20/2020,19:00,1/21/2020,0:00,-9999,,,clear,Perseus,"Clear sky, but only one star can be seen.",Light pollution due to college,United States - Pennsylvania,47220
216606,GAN,15312,40.801,-77.8574,352.052,1/20/2020,19:37,1/21/2020,0:37,3,,,clear,Perseus,"In the direction of the north their were very little amounts of stars you could see. However in the direction of south their were a ton more stars including the Little Dipper. Many of the stars in the south direction were bright and easy to see, meanwhile the stars in the northern direction were much more dim and harder to see.",Was in the courtyard in front of the pollock area basketball and volleyball courts,United States - Pennsylvania,16802
216608,GAN,15314,40.8503,-73.6977,28.6541,1/20/2020,19:45,1/21/2020,0:45,4,,,clear,Perseus,"Clear sky, strong wind","suburban area, right near a school playground",United States - New York,11050
216609,GAN,15315,26.3084,-98.2034,30.7852,1/20/2020,19:00,1/21/2020,1:00,-9999,,,over 1/2 of sky,Perseus,,Suburban/rural,United States - Texas,78504
216610,GAN,15316,35.1805,-111.654,2102.37,1/20/2020,18:00,1/21/2020,1:00,3,,,1/4 of sky,Orion,"minimal light pollution, I was by a streetlight.","Im in a sub urban environment, I walked a ways away from street lights, but there was still one street light where I made my observations. Although, the one street light didn't effect my observations in any way that I could tell.",United States - Arizona,86011
216611,GAN,15317,26.3017,-98.3021,46.7759,1/20/2020,19:11,1/21/2020,1:11,-9999,,,over 1/2 of sky,Perseus,,,United States - Texas,78573
216612,GAN,15318,40.7934,-77.86,350.797,1/20/2020,20:11,1/21/2020,1:11,2,,,clear,Perseus,"Completely clear, little to no light pollution",Near 0 street lights.,United States - Pennsylvania,16801
216613,GAN,15319,40.7916,-77.8665,356.056,1/20/2020,20:17,1/21/2020,1:17,3,,,clear,Perseus,Clear sky. Can see Orion clearly,,United States - Pennsylvania,16801
216614,GAN,15320,26.4853,-98.2869,57.5166,1/20/2020,19:17,1/21/2020,1:17,2,,,1/2 of sky,Perseus,,Cloudy. Mostly clear.,United States - Texas,null
216615,GAN,15321,26.3084,-98.2034,30.7852,1/20/2020,19:16,1/21/2020,1:16,3,,,1/4 of sky,Orion,,"Suburban, lighted building 50-100feet away",United States - Texas,78504
216616,GAN,15322,26.3074,-98.2033,29.9299,1/20/2020,19:16,1/21/2020,1:16,3,,,1/4 of sky,Orion,,Rural,United States - Texas,78504
216617,GAN,15323,26.3074,-98.2033,29.9299,1/20/2020,19:16,1/21/2020,1:16,3,,,1/4 of sky,Orion,,Rural,United States - Texas,78504
216618,GAN,15324,26.4853,-98.2869,57.5166,1/20/2020,19:18,1/21/2020,1:18,2,,,1/4 of sky,Perseus,,Cloudy. Clear on the other side of the Orion constellation,United States - Texas,null
216619,GAN,15325,26.3092,-98.2035,30.2457,1/20/2020,19:19,1/21/2020,1:19,2,,,1/4 of sky,Orion,,Rural,United States - Texas,78541
216620,GAN,15326,40.8012,-77.858,351.577,1/20/2020,20:16,1/21/2020,1:16,4,,,clear,Perseus,Clear night sky,"Basketball court, college campus, in between dorms",United States - Pennsylvania,16802
216621,GAN,15327,26.3082,-98.2031,30.8321,1/20/2020,19:18,1/21/2020,1:18,3,,,1/4 of sky,Perseus,,Rurual area. Lighta near by.,United States - Texas,78504
216622,GAN,15328,26.3082,-98.2031,30.8321,1/20/2020,19:20,1/21/2020,1:20,3,,,1/4 of sky,Perseus,,,United States - Texas,78504
216623,GAN,15329,26.3082,-98.2031,30.8321,1/20/2020,19:16,1/21/2020,1:16,3,,,1/4 of sky,Perseus,Scattered clouds,Street lights near by. 50-75ft away,United States - Texas,78504
216624,GAN,15330,26.308,-98.2023,29.9825,1/20/2020,19:21,1/21/2020,1:21,3,,,1/4 of sky,Orion,,Rural light 100 ft,United States - Texas,78539
216625,GAN,15331,40.7821,-77.8508,338.825,1/20/2020,20:23,1/21/2020,1:23,3,,,clear,Orion,clear sky; no visible clouds,suburban area with rural areas surrounding town/neighborhoods. Snow cover on the ground. Observed from a field with street light approx. 100ft away from my location.,United States - Pennsylvania,16801
216627,GAN,15333,40.7977,-77.8541,338.355,1/20/2020,20:20,1/21/2020,1:20,1,,,clear,Perseus,"No haze, no clouds. Clear night","Urban area, a dim porch light, no snow in the way, 10th floor elevation.",United States - Pennsylvania,16801
216630,GAN,15336,40.8059,-77.8607,359.529,1/20/2020,20:24,1/21/2020,1:24,1,,,clear,Perseus,Heard it was a clear night but not that many stars were visible. This may have been due to the amount of light around me.,This was right outside the dorm so there was a lot of light. Streetlights were everywhere.,United States - Pennsylvania,16802
216631,GAN,15338,40.8042,-77.8646,364.225,1/20/2020,20:49,1/21/2020,1:49,3,,,clear,Perseus,"Clear sky, slight haze","Buildings around, several streetlights, snow/ice coverage, lots of lights around, open space (on the large lawn)",United States - Pennsylvania,16802
216632,GAN,15339,40.8011,-77.8585,353.04,1/20/2020,20:54,1/21/2020,1:54,2,,,1/4 of sky,Perseus,It is mostly clear just a view clouds floating around.,I am in a open area with no trees or light making my view of the stars bad.,United States - Pennsylvania,16802
216633,GAN,15340,35.178,-111.654,2102.7,1/20/2020,19:05,1/21/2020,2:05,2,,,1/2 of sky,Perseus,The sky was a little hazy with decent visibility that allowed me to see just well enough to observe the sky's beauty.,College Campus,United States - Arizona,86011
216634,GAN,15341,40.8311,-77.8834,342.876,1/20/2020,21:12,1/21/2020,2:12,3,,,clear,Perseus,Completly clear.,Snow covered area. Urban area but not to comdensed,United States - Pennsylvania,16803
216635,GAN,15342,40.8036,-77.9002,374.036,1/20/2020,21:11,1/21/2020,2:11,4,,,clear,Perseus,Clear skies. Snow makes the sky slightly brighter. Orion can be found easily.,Rural area. Few streetlights. Snow reflects a lot of the light.,United States - Pennsylvania,16803
216636,GAN,15343,43.0507,-88.0021,208.057,1/20/2020,20:16,1/21/2020,2:16,3,,,clear,Orion,Clear,"Suburban, snow cover,  few trees, porch light.",United States - Wisconsin,53213
216637,GAN,15345,41.0462,-77.943,431.678,1/20/2020,21:15,1/21/2020,2:15,4,,,clear,Perseus,The sky appears to be relatively clear. Any clouds in the sky are not very noticeable.,"This is a suburban location. There are a couple street lights in the distance. There are woods to the West. Overall, there is not much light being produced by either the street lights or the surrounding houses.",United States - Pennsylvania,16874
216638,GAN,15346,40.8738,-77.8779,351.099,1/20/2020,21:42,1/21/2020,2:42,4,,,clear,Perseus,,,United States - Pennsylvania,16823
216639,GAN,15347,44.1163,-69.3649,62.8075,1/20/2020,22:15,1/21/2020,3:15,6,,,clear,Orion,"Perfect, clear conditions. Few clouds on horizon.",,United States - Maine,04572
216640,GAN,15351,46.2831,-119.299,124.188,1/20/2020,20:36,1/21/2020,4:36,-9999,,,over 1/2 of sky,Perseus,dms-the clouds covered the sky to the SE completely. it was patchy to the NW but otherwise covered the sky,"dms- the were a few street lights, and porch lights. light traffic, suburban area. very quiet, no snow",United States - Washington,99354
216643,GAN,15355,46.8693,-122.273,253.503,1/20/2020,21:41,1/21/2020,5:41,5,,,clear,Perseus,JK: clear night sky with a clear view of the sky.,JK: I live in a very rural area  very few lights except some dimmer street lights towards the front of the house. Tall towering trees cover a portion of the sky from my view. very little city lights.,United States - Washington,98328
216644,GAN,15356,46.8057,-122.294,364.258,1/20/2020,19:54,1/21/2020,3:54,6,,,clear,Perseus,"JK: Clear sky, no clouds. a clear view of the sky.",JK: Rural area no city lights   no house lights no car lights.   in dark forest land.,United States - Washington,null
216645,GAN,15358,35.1819,-111.654,2104.27,1/20/2020,21:50,1/21/2020,4:50,1,,,over 1/2 of sky,Perseus,There are a lot of clouds and almost  no stars in the sky.,There is a street lamp about 50 meters to the Southwest.,United States - Arizona,86011
216667,GAN,15382,44.0548,-121.327,1105.16,1/21/2020,4:25,1/21/2020,12:25,4,,,clear,Perseus,,Urban,United States - Oregon,97703
216704,GAN,15420,35.1754,-111.657,2105.63,1/18/2020,19:16,1/19/2020,2:16,5,,,clear,Perseus,,Two or three traffic nights around,United States - Arizona,86011
216705,GAN,15421,34.5636,-111.854,958.951,1/18/2020,10:30,1/18/2020,17:30,5,,,clear,Orion,Slight haze to the south.,Rural with little light.,United States - Arizona,86322
216725,GAN,15449,35.1415,-111.648,2115.37,1/17/2020,22:11,1/18/2020,5:11,5,,,clear,Orion,,"Fairly rural, no street lights. The only lights were from incoming cars.",United States - Arizona,86005
216734,GAN,15462,42.8456,-85.6074,245.302,1/21/2020,18:15,1/21/2020,23:15,2,,,over 1/2 of sky,Perseus,"Lots of clouds, light, with large gaps in between, moving quickly. Orange-ish yellow horizon light glow to the south.","Suburban area, full snow cover, 2-3 streetlights in the vicinity, residential lights, near a school building and residential neighborhood, some large trees surrounding area.",United States - Michigan,49316
216737,GAN,15467,40.8006,-77.8881,352.302,1/21/2020,19:12,1/22/2020,0:12,3,,,over 1/2 of sky,Perseus,The clouds are wispy and thin. But there are enough clouds so that is it very difficult to see any stars,"I am in the suburbs of penn state. The location I am at has 5 street lights, some snow coverage on the ground, and it is cloudy. There are trees along the road but they are very spaced out.",United States - Pennsylvania,16803
216738,GAN,15469,40.7891,-77.8642,348.151,1/21/2020,20:08,1/22/2020,1:08,2,,,1/4 of sky,Perseus,clear when i got out here cloudy 5 mins in,house in state college off of e college,United States - Pennsylvania,16801
216739,GAN,15470,40.8004,-77.8575,351.605,1/21/2020,20:13,1/22/2020,1:13,2,,,1/4 of sky,Perseus,Few clouds closer to downtown. Clear above south halls and towards the North. Low wind.,Snow covering ground. Campus lights nearby. South halls close to the HUB. Quiet atmosphere. Few people. Low wind.,United States - Pennsylvania,16802
216740,GAN,15472,40.8019,-77.8659,368.375,1/21/2020,20:37,1/22/2020,1:37,1,,,1/4 of sky,Perseus,,"Suburban, lots of street lights",United States - Pennsylvania,16802
216741,GAN,15473,43.0585,-87.9963,217.964,1/21/2020,19:42,1/22/2020,1:42,1,,,1/4 of sky,Orion,Clouds,"Suburban, snow cover, one porch light, few trees.",United States - Wisconsin,53213
216743,GAN,15475,39.9095,-105.043,1603.28,1/21/2020,19:07,1/22/2020,2:07,2,,,1/2 of sky,Orion,There was a decent amount of clouds.,,United States - Colorado,80031
216744,GAN,15477,39.9244,-105.084,1638.24,1/21/2020,19:33,1/22/2020,2:33,-9999,,,over 1/2 of sky,Orion,,,United States - Colorado,80020
216745,GAN,15478,40.7982,-77.8599,350.064,1/21/2020,21:43,1/22/2020,2:43,3,,,clear,Perseus,No clouds or sky glow. Clear as can be with starts visible.,"College campus, snow on the ground, several street lights and trees, clear view of the sky.",United States - Pennsylvania,16802
216746,GAN,15479,40.8002,-77.8569,348.606,1/21/2020,21:54,1/22/2020,2:54,3,,,clear,Perseus,,"Next to a streetlight, in an open area in between building",United States - Pennsylvania,16802
216747,GAN,15480,47.2412,-122.454,109.064,1/21/2020,20:13,1/22/2020,4:13,-9999,,,over 1/2 of sky,Perseus,"(Assuming) Nimbostratus clouds, heavy/total overcast conditions. Little to no precipitation. Wind blowing to the north. Glow or aura from artificial lighting seen in every direction, with exception to the southeast. Perseus located approximately to my zenith, currently, but no stars are visible whatsoever in the night sky at this location.",JKS Urban setting. 7 streetlights visible. approximately 12 visible houses within close proximity. Innumerable at a distance. 1 large hospital building visible with large neon lights on all visible sides. Numerous trees and hedges surrounding.,United States - Washington,98405
216748,GAN,15481,46.2829,-119.3,124.051,1/21/2020,20:30,1/22/2020,4:30,3,,,clear,Orion,"dms-clear sky to the SE, there were a few clouds to the NW. The new street light seemed to reflect more in the sky","dms-new, very bright streetlights. no snow, no traffic, quiet neighborhood",United States - Washington,99354
216749,GAN,15483,47.5016,-122.585,51.5411,1/21/2020,20:22,1/22/2020,4:22,-9999,,,over 1/2 of sky,Perseus,"Sky seemed to be very dim, there obviously was no moon in the sky which makes visibility low. I caught a slight window where I was able to be outside without the rain coming down super hard. The clouds were at a stand still from what I could see, I waited for about 10 minutes to see any sort of movement or break but there was nothing.","T.H. : Location, urban area in a wooded neighborhood. Three neighbors porch lights were visible. There is only three small houses located near the observation area of my own home. No bright city lights, or street lights present. Heavy tree and forest coverage, within the area as well as being located on a hill.",United States - Washington,98367
216750,GAN,15484,47.3672,-122.173,124.572,1/21/2020,21:06,1/22/2020,5:06,7,,,over 1/2 of sky,Perseus,Clouds are moving fast in the wind. On my right side the clouds have a lighter color and the clouds to the left look more grey color. There is not much you can see in the sky. It is raining hard.,EB   I'm in a suburb about 30 minutes outside Seattle.,United States - Washington,98030
216751,GAN,15485,47.1857,-122.508,73.7197,1/15/2020,23:24,1/16/2020,7:24,-9999,,,over 1/2 of sky,Perseus,fog and stars not visible,Suburban w/ house lights and light poles.,United States,98499
216752,GAN,15486,47.1858,-122.508,74.1304,1/14/2020,22:00,1/15/2020,6:00,2,,,1/2 of sky,Perseus,"Fog, mostly cloudy, snow flakes BR",Suburban w/ night lights,United States,98499
216753,GAN,15487,47.1858,-122.508,74.3055,1/16/2020,23:35,1/17/2020,7:35,1,,,over 1/2 of sky,Perseus,"A little windy, sky is foggy and visibility is difficult. Light drizzle and wet.",Suburban with lights and tall trees. Light poles around the area as well as traffic lights.,United States - Washington,98499
216754,GAN,15488,47.1858,-122.508,74.3764,1/17/2020,22:30,1/18/2020,6:30,-9999,,,over 1/2 of sky,Perseus,"It is raining hard and dark clouds--no visibility wet, cold and rainy.",Suburban with lights and trees around traffic.,United States,98499
216755,GAN,15489,47.1858,-122.508,74.2257,1/21/2020,22:25,1/22/2020,6:25,-9999,,,over 1/2 of sky,Perseus,"Humid, foggy and full cloud cover--no visibility",Suburban light traffic with lights. Road is wet and almost freezing 38 degrees.,United States,98499
216756,GAN,15490,47.1753,-122.51,80.948,1/18/2020,22:27,1/19/2020,6:27,-9999,,,over 1/2 of sky,Perseus,"Hummid, foggy and full cloud cover--no visibility only reflection from light below.",Suburban light traffic with lights. Road is wet and almost freezing cold at 38 degrees.,United States,98499
216759,GAN,15495,39.9932,-105.089,1587.04,1/21/2020,21:00,1/22/2020,4:00,1,,,over 1/2 of sky,Perseus,,,United States - Colorado,80026
216761,GAN,15499,35.2124,-111.614,2101.08,1/22/2020,1:37,1/22/2020,8:37,-9999,,,over 1/2 of sky,Perseus,Clouds moving west,Street light  Urban area  Porch lights,United States - Arizona,86004
216771,GAN,15510,41.673,-83.6611,188.776,1/16/2020,21:00,1/17/2020,2:00,-9999,,,over 1/2 of sky,Perseus,,,United States - Ohio,43615
216775,GAN,15515,44.0548,-121.327,1105.16,1/22/2020,4:28,1/22/2020,12:28,2,,,1/2 of sky,Perseus,,Urban,United States - Oregon,97703
216796,GAN,15539,47.2644,-122.505,118.106,1/21/2020,10:30,1/21/2020,18:30,3,,,clear,Orion,Clear,Urban,United States - Washington,98406
216797,GAN,15541,47.2643,-122.505,118.336,1/18/2020,10:30,1/18/2020,18:30,3,,,1/2 of sky,Orion,Clouds not moving. No observable wind.,"Urban, J.B.",United States - Washington,98406
216798,GAN,15542,47.2645,-122.505,117.54,1/19/2020,10:00,1/19/2020,18:00,2,,,1/4 of sky,Perseus,Minimal clouds.,"Urban, J.B.",United States - Washington,98406
216799,GAN,15543,47.2644,-122.505,116.022,1/20/2020,10:15,1/20/2020,18:15,2,,,clear,Perseus,"No clouds, haze, or fog etc...","Urban, J.B.",United States - Washington,98406
216804,GAN,15548,40.8034,-77.8573,347.602,1/21/2020,9:02,1/21/2020,14:02,2,,,clear,Perseus,There was a slight haze from the lights near the Bryce Jordan Center/ Beaver Stadium. The haze was mostly over the horizon of the sky.,,United States - Pennsylvania,16802
216806,GAN,15550,39.9376,-105.078,1652.75,1/21/2020,19:07,1/22/2020,2:07,2,,,1/2 of sky,Orion,,,United States - Colorado,80020
216807,GAN,15551,39.9205,-105.087,1643.08,1/21/2020,19:30,1/22/2020,2:30,2,,,1/2 of sky,Perseus,,,United States - Colorado,80020
216821,GAN,15568,40.8266,-73.6881,39.6637,1/22/2020,18:39,1/22/2020,23:39,3,,,1/4 of sky,Orion,,"slight amount of snow, lots of trees surrounding",United States - New York,11050
216828,GAN,15575,37.6234,-77.3883,61.4253,1/22/2020,19:16,1/23/2020,0:16,2,,,clear,Orion,,Suburban location. Field near a church. Roads and hospital  with in quarter mile,United States - Virginia,23111
216830,GAN,15577,26.2426,-98.2191,35.189,1/21/2020,8:02,1/21/2020,16:02,7,,,over 1/2 of sky,Orion,JJ. Full cloud coverage. No stars seen.,JJ. Urban location. One street light 20 feet away. 1/4 block from Main Street with multiple street lights. Neighboring house has 2 bright lights on walk way.,United States - Texas,78504
216833,GAN,15583,40.8002,-77.857,348.706,1/22/2020,20:48,1/23/2020,1:48,1,,,1/4 of sky,Perseus,Wasnt very cloudy but it was very dark so hard to tell.,There were lots of lights around me,United States - Pennsylvania,16802
216834,GAN,15584,43.0507,-88.0021,208.057,1/22/2020,19:56,1/23/2020,1:56,-9999,,,over 1/2 of sky,Orion,Full clouds.,"Suburban, snow cover, trees.",United States - Wisconsin,53213
216835,GAN,15585,40.6527,-74.0093,8.55194,1/22/2020,21:02,1/23/2020,2:02,3,,,clear,Perseus,Haze,Grass field next to dark woods and a bright neighborhood.,United States - New York,11232
216836,GAN,15586,40.6527,-74.0093,8.55194,1/22/2020,21:02,1/23/2020,2:02,3,,,clear,Perseus,Haze,Grass field next to dark woods and a bright neighborhood.,United States - New York,11232
216838,GAN,15588,35.1838,-111.654,2110.65,1/22/2020,19:00,1/23/2020,2:00,5,,,clear,Perseus,"Some sky glow from the North and South, mostly campus buildings that were still in use.","Near the NAU Campus Observatory. Due to Orion's location, it was above an active road/ parking lot. There was a car parked there with white LED headlights, this was about 100-150 feet away. The closest streetlight was about 40 ft away. It had an orange bulb and an obscured blue emergency light.",United States - Arizona,86011
216840,GAN,15592,40.8067,-77.8665,358.852,1/22/2020,21:43,1/23/2020,2:43,3,,,clear,Orion,Clear night sky,Marsh Meadows at the Arboretum at Penn State,United States - Pennsylvania,16802
216841,GAN,15593,35.1845,-111.651,2108.03,1/22/2020,19:20,1/23/2020,2:20,4,,,clear,Orion,Absurdly clear after the bad weather for the past couple of days. Could clearly see Orion's Belt (and the rest of him).,"Parking garage of Hilltop Townhomes, lights were out, no lights within 100ft of observation location.",United States - Arizona,86011
216842,GAN,15594,35.1927,-111.662,2108.41,1/22/2020,20:11,1/23/2020,3:11,-9999,,,clear,Orion,clear skies all around,urban location. multiple street lights in view and a few city lights from the roof of my apartment.,United States - Arizona,86001
216843,GAN,15595,35.1893,-111.664,2111.28,1/22/2020,19:50,1/23/2020,2:50,2,,,clear,Perseus,,,United States - Arizona,86001
216844,GAN,15596,35.1903,-111.647,2104.08,1/22/2020,20:19,1/23/2020,3:19,4,,,clear,Orion,The sky was clear with no clouds covering at all.,I was in my backyard with no lights on. No bright lights were within 300 feet of where I was standing,United States - Arizona,86001
216846,GAN,15598,35.1983,-111.651,2103.93,1/22/2020,19:40,1/23/2020,2:40,5,,,1/4 of sky,Perseus,little amount of clouds,some street lights,United States - Arizona,86001
216848,GAN,15602,35.2198,-111.635,2167.67,1/22/2020,21:06,1/23/2020,4:06,4,,,clear,Orion,There are no clouds at all. Pretty high with the humidity. No winds or light sources.,Being away from a lot of the light and being higher than everything else makes it so much easier to see everything in the sky. Lots of trees and little snow just very dark.,United States - Arizona,86601
216849,GAN,15603,47.2199,-122.539,121.092,1/22/2020,20:12,1/23/2020,4:12,-9999,,,over 1/2 of sky,Orion,"JL - Almost completely covered in clouds. It was raining much of the day and into the evening. The clouds became kind of amorphous, sort of a single sheet covering the whole sky. I could not spot a single star; only clouds.","JL - Urban, courtyard in middle of an apartment complex. Several surrounding buildings, each with an outside light and porch-lights. One vending machine. Several apartments with light coming from windows & sliding glass doors. Near intersection of two major streets, lots of street lamps. Shopping center on other side of apartment complex, and big shopping center across the street - stores lit up, a dozen or so lamps in parking lot. Neighboring apartment complexes similarly lighted.",United States - Washington,null
216850,GAN,15605,35.1983,-111.651,2103.93,1/22/2020,22:40,1/23/2020,5:40,4,,,clear,Perseus,,,United States - Arizona,86001
216851,GAN,15606,47.2502,-122.634,65.0938,1/22/2020,21:57,1/23/2020,5:57,-9999,,,over 1/2 of sky,Orion,"MQ. Lots of clouds, not much to see.","Suburban area, some light pollution.",United States - Washington,98333
216852,GAN,15607,35.1876,-111.657,2103.63,1/22/2020,22:48,1/23/2020,5:48,3,,,clear,Orion,"just a little haze, haze could also be glasses fog because it's very cold and I have a scarf on.","just outside the dorm, don't have anybody who has a car so this is the best we're getting, the streetlights aren't fun but that's okay I guess",United States - Arizona,86011
216853,GAN,15608,47.2411,-122.454,111.316,1/22/2020,22:27,1/23/2020,6:27,-9999,,,over 1/2 of sky,Perseus,"(Assuming) Nimbostratus clouds, heavy/total overcast conditions. No precipitation. No wind. Glow or aura from artificial lighting seen in every direction, with exception to the southeast and northwest. Perseus located approximately to my zenith, currently, but no stars are visible whatsoever in the night sky at this location.",JKS Urban setting. 7 streetlights visible. approximately 12 visible houses within close proximity. Innumerable at a distance. 1 large hospital building visible with large neon lights on all visible sides. Numerous trees and hedges surrounding.,United States - Washington,98405
216854,GAN,15609,35.1922,-111.655,2105.04,1/22/2020,23:38,1/23/2020,6:38,3,,,clear,Orion,,There is a building with smoke coming out not too far. About 3 light posts and a total of 7 lights in the surrounding area. Buildings within the area.,United States - Arizona,86001
216855,GAN,15610,35.1853,-111.657,2101.34,1/22/2020,23:28,1/23/2020,6:28,3,,,1/4 of sky,Orion,,,United States - Arizona,86011
216862,GAN,15621,44.0548,-121.327,1105.16,1/23/2020,4:26,1/23/2020,12:26,-9999,,,over 1/2 of sky,Perseus,,Urban,United States - Oregon,97703
216868,GAN,15628,47.5298,-122.59,108.905,1/22/2020,21:00,1/23/2020,5:00,-9999,,,over 1/2 of sky,Perseus,The sky tonight was very overcast like with lots of cloud cover. Not much luck with clarity for fully seeing the constellations. Also there has been a lot of rain fall in my area lately which has been making it difficult for observing light conditions.,"T.H. : Suburban neighborhood, medium tree / forest coverage. Large quantity of neighbors all with outside lights on. Also a few street lights within the neighborhood to.",United States - Washington,98366
216869,GAN,15630,35.1275,-111.615,2123.23,1/22/2020,21:14,1/23/2020,4:14,7,,,clear,Perseus,,Little to no light pollution,United States - Arizona,86005
216871,GAN,15633,47.2559,-122.497,114.751,1/22/2020,22:00,1/23/2020,6:00,7,,,over 1/2 of sky,Perseus,"JJ. Night 2 of observing Orion. Most of sky covered by clouds, unable to see any stars. I checked 3 times. Once at 8, then at 10 and again early this am around 6. Still nothing.",JJ- Street light in front of house. Additional street lights running down Stevens street.,United States - Washington,98406
216873,GAN,15635,39.9205,-105.087,1643.08,1/23/2020,10:14,1/23/2020,17:14,2,,,1/2 of sky,Perseus,There was a good amount of clouds in the sky at the time.,There were a lot of porch lights.,United States - Colorado,80020
216875,GAN,15637,45.8431,-122.917,213.841,1/16/2020,20:30,1/17/2020,4:30,4,,,clear,Orion,There was a small bit of haze/smoke from the chimney,Very Rural Area,United States - Oregon,97053
216876,GAN,15638,35.1819,-111.654,2094.41,1/22/2020,19:00,1/23/2020,2:00,5,,,clear,Perseus,Clear.,"Some streetlights, observed from NAU Campus",United States - Arizona,86011
216888,GAN,15650,47.0979,-122.204,58.9988,1/21/2020,20:30,1/22/2020,4:30,1,,,1/2 of sky,Perseus,"The sky was cloudy; the clouds were thick, but a few lights were visible through the clouds; the moon dimly glowed behind the woods; the clouds appeared to be moving west",Outside of a suburban neighborhood; in a clearing surrounded by trees; the nearest visible light was about half a mile away; there was the woods on one side of the viewing area,United States - Washington,98360
216889,GAN,15651,47.0979,-122.204,58.9988,1/21/2020,20:30,1/22/2020,4:30,1,,,1/2 of sky,Perseus,"The sky was cloudy; the clouds were thick, but a few lights were visible through the clouds; the moon dimly glowed behind the woods; the clouds appeared to be moving west",R.C. Outside of a suburban neighborhood; in a clearing surrounded by trees; the nearest visible light was about half a mile away; there was the woods on one side of the viewing area,United States - Washington,98360
216890,GAN,15652,47.0979,-122.204,58.9988,1/22/2020,13:15,1/22/2020,21:15,3,,,1/2 of sky,Perseus,"The sky was filled with wispy clouds; multiple stars were visible, but it was difficult to make out constellations clearly; the moon glowed dimly behind the viewing position; the clouds appeared to be moving west.",R.C. Outside of a suburban neighborhood; in a clearing surrounded by trees; the nearest visible light was about half a mile away; there was the woods on one side of the viewing area,United States - Washington,98360
216900,GAN,15663,39.8491,-82.8018,236.149,1/23/2020,18:50,1/23/2020,23:50,-9999,,,over 1/2 of sky,Perseus,Very cloudy sky.  Could not see any stars.  Above my house was dark but toward the city the lights lit the clouds and make it look light grey.,"Suburban location  Light pollution.  On a clear night you can see the Columbus, Ohio lights and street lights",United States - Ohio,43110
216901,GAN,15664,39.8491,-82.8018,236.149,1/23/2020,18:50,1/23/2020,23:50,-9999,,,over 1/2 of sky,Perseus,Very cloudy sky.  Could not see any stars.  Above my house was dark but toward the city the lights lit the clouds and make it look light grey.,"Suburban location  Light pollution.  On a clear night you can see the Columbus, Ohio lights and street lights",United States - Ohio,43110
216903,GAN,15668,40.8056,-77.8611,359.947,1/23/2020,19:52,1/24/2020,0:52,2,,,clear,Perseus,"no clouds visible, hard to tell","near sidewalk lights, behind curtin on east quad",United States - Pennsylvania,16802
216904,GAN,15669,43.0507,-88.0021,208.057,1/23/2020,19:06,1/24/2020,1:06,-9999,,,over 1/2 of sky,Orion,Full clouds.,"Suburban, snow cover, trees.",United States - Wisconsin,53213
216905,GAN,15670,40.7715,-103.273,1243.71,1/23/2020,18:41,1/24/2020,1:41,6,,,clear,Perseus,"Light dome to south 10-15 degrees up, horizon glow in southwest.","Rural. North Sterling State Park, picnic area just south of the south boat ramp. Good dark sight with no immediate lighting. No trees or large structures.",United States - Colorado,null
216907,GAN,15673,35.1866,-111.654,2103.57,1/23/2020,19:15,1/24/2020,2:15,1,,,clear,Orion,"Some of the lights around me were distracting, the halls lights were decently bright but did not hinder seeing Orion, took me a little while to figure out where Orion was, I used the app afterward to assist me","No trees obstructing my view, friends watching the sky with me, slightly cold outside",United States - Arizona,86011
216908,GAN,15674,35.1876,-111.655,2102.34,1/23/2020,19:48,1/24/2020,2:48,4,,,clear,Orion,"A little Hazy, yet not enough to impact magnitudes significantly.",,United States - Arizona,86011
216909,GAN,15675,40.8062,-77.8632,359.436,1/23/2020,21:50,1/24/2020,2:50,2,,,1/4 of sky,Perseus,,,United States - Pennsylvania,16802
216910,GAN,15676,35.0903,-111.696,2066.88,1/23/2020,19:50,1/24/2020,2:50,5,,,clear,Orion,,,United States - Arizona,null
216911,GAN,15677,32.5521,-97.0684,172.407,1/23/2020,21:16,1/24/2020,3:16,3,,,clear,Perseus,"Clear skys, can see some of the stars out",Suburbs,United States - Texas,76063
216912,GAN,15678,40.0749,-105.182,1586.99,1/23/2020,20:10,1/24/2020,3:10,4,,,clear,Orion,Clouds on the horizon in the north,"Superb, porch lights",United States - Colorado,80503
216913,GAN,15679,40.0731,-105.19,1583.06,1/23/2020,20:18,1/24/2020,3:18,4,,,clear,Perseus,Clouds on the horizon in the north,"Suberb, porch lights",United States - Colorado,null
216914,GAN,15680,32.5575,-97.0612,169.594,1/23/2020,21:18,1/24/2020,3:18,2,,,clear,Perseus,A lot of light pollution.,,United States - Texas,75054
216915,GAN,15681,30.2512,-95.544,60.3986,1/23/2020,21:16,1/24/2020,3:16,1,,,1/2 of sky,Perseus,The sky was cloudy but I could see it barely,Outside my grandparents home,United States - Texas,77384
216916,GAN,15682,32.5822,-97.0491,169.131,1/23/2020,21:30,1/24/2020,3:30,3,,,clear,Perseus,,At the end of my drive way,United States - Texas,75054
216917,SQM,15683,31.6037,-111.046,979.377,1/23/2020,21:24,1/24/2020,4:24,5,21.03,,clear,Orion,Clear with excellent transparency,Easternmost Barrio de Tubac.,United States - Arizona,85646
216918,GAN,15684,35.1983,-111.651,2103.93,1/23/2020,19:36,1/24/2020,2:36,4,,,clear,Orion,"A slight haze from previous days being cloudy, but overall clear sky.","NAU south campus. Tall trees in distance, with some streetlights and cars in distance. Snow was mostly melted.",United States - Arizona,86001
216919,GAN,15686,32.5813,-97.0524,167.099,1/23/2020,22:50,1/24/2020,4:50,3,,,clear,Perseus,Clear,Suburban,United States - Texas,75054
216920,GAN,15688,32.5818,-97.0496,167.399,1/23/2020,22:51,1/24/2020,4:51,2,,,clear,Orion,Clear,Suburban,United States - Texas,75054
216921,GAN,15689,47.2199,-122.539,121.092,1/23/2020,20:34,1/24/2020,4:34,-9999,,,1/2 of sky,Orion,"JL - The sky was about half covered in clouds tonight, maybe a tiny bit more. It rained some today. The clouds were a bit diffuse . . . some sections of sky appeared to have no cloud cover, but still there were no stars visible tonight.","JL - Urban, courtyard in middle of an apartment complex. Several surrounding buildings, each with an outside light and porch-lights. One vending machine. Several apartments with light coming from windows & sliding glass doors. Near intersection of two major streets, lots of street lamps. Shopping center on other side of apartment complex, and big shopping center across the street - stores lit up, a dozen or so lamps in parking lot. Neighboring apartment complexes similarly lighted.",United States - Washington,null
216922,GAN,15690,47.2502,-122.634,65.0938,1/23/2020,20:59,1/24/2020,4:59,3,,,over 1/2 of sky,Orion,Almost 100% cloud cover.,Suburban with some porch lights and many trees.,United States - Washington,98333
216923,SQM,15692,32.6102,-110.798,1328.98,1/23/2020,22:09,1/24/2020,5:09,6,21.05,0bd9,clear,Orion,Clear,Rural,United States - Arizona,85623
216924,GAN,15695,33.5991,-112.03,438.913,1/23/2020,23:24,1/24/2020,6:24,4,,,clear,Orion,really clear sky,,United States,85032
216925,SQM,15697,35.5611,-121.107,7.99572,1/23/2020,22:35,1/24/2020,6:35,6,21.36,4299,clear,Perseus,,small town with virtually no ambient light,United States - California,93428
216927,GAN,15699,33.5992,-112.029,438.853,1/23/2020,23:36,1/24/2020,6:36,4,,,clear,Orion,really clear sky,"Urban, a few street light and light from houses around",United States - Arizona,85032
216928,GAN,15700,33.599,-112.03,438.968,1/22/2020,22:45,1/23/2020,5:45,4,,,clear,Perseus,really clear sky,"Urban, a few street lights and lights from houses around",United States - Arizona,85032
216929,GAN,15701,33.599,-112.03,438.99,1/21/2020,20:15,1/22/2020,3:15,3,,,1/4 of sky,Perseus,"A little bit cloud, not considerable","Urban, a few street lights and lights from houses around",United States - Arizona,85032
216942,GAN,15720,44.0548,-121.327,1105.16,1/24/2020,4:28,1/24/2020,12:28,4,,,clear,Perseus,,Urban,United States - Oregon,97703
216949,GAN,15729,32.5822,-97.072,182.063,1/24/2020,19:28,1/25/2020,1:28,2,,,1/4 of sky,Perseus,Dark sky  Few clouds and stars,Suburban area,United States - Texas,76063
216951,GAN,15731,32.5577,-97.1342,200.384,1/23/2020,21:17,1/24/2020,3:17,3,,,clear,Orion,"Less than 1/4 of the sky had clouds, but still good for observing.",There were stadium lights on in a 5 mi radius of my home.,United States - Texas,76063
216954,GAN,15734,32.5822,-97.072,182.063,1/24/2020,19:28,1/25/2020,1:28,2,,,1/4 of sky,Perseus,Dark sky  Few clouds and stars,Suburban area,United States - Texas,76063
216964,GAN,15747,47.5555,-122.544,5.70545,1/23/2020,21:00,1/24/2020,5:00,2,,,over 1/2 of sky,Perseus,Sky seemed to be a little lighter tonight versus the last two nights. This could be due to the location being so close to Seattle and being in a more populated area. There was heavy cloud cover as well as heavy rain. I could see a few stars but not many.,"T.H. : Local park on the Puget Sound. Not many tree's or forestation within a mile or so. Seattle lights shine in the distance from this point. Quite a few street lights, porch lights, and business lighting here.",United States - Washington,98366
216971,GAN,15756,35.1778,-111.657,2096.71,1/23/2020,9:27,1/23/2020,16:27,4,,,clear,Orion,,,United States - Arizona,86011
216981,GAN,15771,35.1885,-111.655,2101.24,1/24/2020,1:35,1/24/2020,8:35,3,,,clear,Orion,It was completely clear skys and super pretty,I was at The Wedge getting food,United States - Arizona,86011
216985,GAN,15776,34.8165,-111.905,1207.45,1/24/2020,21:30,1/25/2020,4:30,6,,,clear,Perseus,The sky was very clear with very few clouds.,Not very many lights in sight. Camped out on a forest service road.,United States - Arizona,null
216989,GAN,15782,39.9205,-105.087,1643.08,1/24/2020,19:09,1/25/2020,2:09,2,,,1/4 of sky,Perseus,,,United States - Colorado,80020
216995,GAN,15789,47.3632,-122.561,112.407,1/23/2020,21:00,1/24/2020,5:00,2,,,1/2 of sky,Perseus,"The sky was slightly overcast but windy enough for me to see a clear sky at times. There was no rain, and I was far enough away from nearby light sources which could dim my view. This was while looking at the Perseus constellation.","Anthony Coraggio.     Suburban neighborhood. No streetlight, tall trees. Many clearances in the sky.",United States - Washington,98332
216996,GAN,15790,47.513,-122.68,109.952,1/22/2020,22:11,1/23/2020,6:11,1,,,over 1/2 of sky,Perseus,"The sky was very hard to see. A mix of the lights, clouds, and rain probably contributed to the difficulty. The wind wasn't very strong, and it was warmer outside. Since I was somewhat close to the Port Orchard city area, I think the light pollution from the city also prevented a better view.",Anthony Coraggio.     Urban neighborhood location with many houses close together. Many streetlights and other household lights. There were no trees nearby and the sky was fully view-able.,United States - Washington,98312
216997,GAN,15791,47.3403,-122.588,8.43644,1/21/2020,20:34,1/22/2020,4:34,4,,,1/4 of sky,Perseus,"The sky was fairly clear with not too much light pollution in the sky. This location is nearby my house, so the view is familiar. The cloud cover was thin but not very thick, so I was able to view a good amount of  the stars. Since it was windy outside, the amount of cloud-coverage varied here and there.","Anthony Coraggio.    Near the harbor. There were streetlights and other harbor boat lights all around. I had a view of the sky when I was standing near the dock at ""Anthony's"".",United States - Washington,98332
216999,GAN,15794,40.8054,-77.8632,360.03,1/24/2020,20:39,1/25/2020,1:39,-9999,,,1/2 of sky,Perseus,,,United States - Pennsylvania,16802
217001,GAN,15796,40.8218,-77.8832,357.652,1/24/2020,20:51,1/25/2020,1:51,-9999,,,over 1/2 of sky,Perseus,,,United States - Pennsylvania,16803
217002,GAN,15797,47.2559,-122.497,114.751,1/23/2020,21:02,1/24/2020,5:02,7,,,over 1/2 of sky,Orion,"Unable to see any stars. I went out to observe a few different times, the sky never cleared up. To test the clues, I followed the sound of an airplane through the sky. I was unable to see any lights.",JJ. Urban location.  Street light directly in front of house. House of main road full of street lights.,United States - Washington,98406
217003,GAN,15798,35.1886,-111.65,2106.19,1/24/2020,19:01,1/25/2020,2:01,2,,,clear,Orion,Very mild ambient haze due to city.,Suburban with half-melted snow cover and one nearby streetlight,United States - Arizona,86011
217004,GAN,15799,35.1885,-111.649,2106.87,1/24/2020,19:03,1/25/2020,2:03,2,,,1/4 of sky,Orion,Possible haze or glare from glasses,"Suburban, 2 or 3 street lights",United States - Arizona,86011
217005,GAN,15800,28.1574,-82.7758,3.42777,1/24/2020,20:26,1/25/2020,2:26,4,,,clear,Orion,"Clear, no clouds, stars are bright and clear","Suburban, very few street lights on, sky is very clear",United States - Florida,34689
217006,GAN,15802,47.2409,-122.454,113.088,1/24/2020,19:04,1/25/2020,3:04,-9999,,,over 1/2 of sky,Perseus,"Slightly less clouds tonight. Gap in cloud coverage at my zenith. No precipitation. No wind. Glow or aura from artificial lighting seen in every direction, with exception to the southeast. Perseus located approximately to my zenith, currently, but no stars are visible whatsoever in the night sky at this location. I was encouraged by the fewer clouds tonight and was hoping to see any stars at all. However, there are 2 streetlights within very close proximity and i feel they are preventing observation. Too much light pollution in my area - in approximately 6 months I have never witnessed any stars in the night sky.",JKS Urban setting. 7 streetlights visible. approximately 12 visible houses within close proximity. Innumerable at a distance. 1 large hospital building visible with large neon lights on all visible sides. Numerous trees and hedges surrounding,United States - Washington,98405
217007,GAN,15803,33.3001,-111.676,408.166,1/24/2020,20:03,1/25/2020,3:03,3,,,clear,Orion,clear of clouds,"Rural area, next to a small airport",United States - Arizona,85212
217008,GAN,15804,46.8688,-122.272,251.831,1/23/2020,21:13,1/24/2020,5:13,2,,,over 1/2 of sky,Perseus,JK: clouds throughout the sky that seem to make the sky brighter and it harder to see. I was unable to locate the full Perseus at one time,JK: rural location with view lights large trees line the horizon but have a good view of sky. one street light at the front of the house.,United States - Washington,98328
217009,GAN,15806,35.2198,-111.635,2167.67,1/24/2020,19:20,1/25/2020,2:20,5,,,clear,Orion,,"Suburban park. No street lamps from where I could see. Dim, yellow outdoor lights on a building several yards away.",United States - Arizona,86601
217010,GAN,15807,39.9205,-105.087,1643.08,1/24/2020,21:28,1/25/2020,4:28,-9999,,,over 1/2 of sky,Orion,,,United States - Colorado,80020
217011,GAN,15808,47.2199,-122.539,121.092,1/24/2020,20:38,1/25/2020,4:38,-9999,,,over 1/2 of sky,Orion,"It was lightly raining, and the sky was nearly completely covered by a sheet of clouds again. There was a tiny break of clouds in one small spot that I observed. No stars were visible at all.","JL - Urban, courtyard in middle of an apartment complex. Several surrounding buildings, each with an outside light and porch-lights. One vending machine. Several apartments with light coming from windows & sliding glass doors. Near intersection of two major streets, lots of street lamps. Shopping center on other side of apartment complex, and big shopping center across the street - stores lit up, a dozen or so lamps in parking lot. Neighboring apartment complexes similarly lighted.",United States - Washington,null
217012,GAN,15809,35.1879,-111.656,2102.76,1/24/2020,21:34,1/25/2020,4:34,6,,,clear,Orion,,There was a street light on my right about 40-50 feet away. It slightly affected my view on my right side.,United States - Arizona,86011
217013,GAN,15810,46.8277,-122.466,180.252,1/24/2020,20:40,1/25/2020,4:40,3,,,1/4 of sky,Perseus,CAD-- Zero haze but the clouds were floating to the right. They were thick enough to stop me from see the dimmer ones. There was a light dome and it was around the left of Capella.,CAD-- its a neighborhood that is 20 mins from town and has a high level of porch lights. High trees and some large houses.,United States - Washington,98597
217014,GAN,15811,47.2502,-122.634,65.0938,1/24/2020,21:00,1/25/2020,5:00,1,,,over 1/2 of sky,Perseus,MQ. Some openings in clouds. Couldn't see any stars due to clouds and some light pollution.,"Suburban, trees, some porch lights.",United States - Washington,98333
217015,GAN,15812,46.8277,-122.465,157.675,1/23/2020,22:01,1/24/2020,6:01,4,,,clear,Perseus,Zero haze and clouds. The light dome was dead center on Capella and I could see Perseus.,CAD-- its a neighborhood that is 20 mins from town and has a high level of porch lights. High trees and some large houses.,United States,98597
217016,GAN,15812,46.8277,-122.465,157.675,1/23/2020,22:01,1/24/2020,6:01,4,,,clear,Perseus,Zero haze and clouds. The light dome was dead center on Capella and I could see Perseus.,CAD-- its a neighborhood that is 20 mins from town and has a high level of porch lights. High trees and some large houses.,United States,98597
217017,GAN,15813,46.8277,-122.465,180.431,1/22/2020,23:00,1/23/2020,7:00,2,,,1/2 of sky,Perseus,Very high level of cloud movement to the left. It had just stopped raining out here. The haze was over the clouds and the center of the light dome was above Capella below Algol.,CAD-- its a neighborhood that is 20 mins from town and has a high level of porch lights. High trees and some large houses.,United States,98597
217018,GAN,15814,40.7934,-77.86,350.797,1/25/2020,0:13,1/25/2020,5:13,-9999,,,over 1/2 of sky,Perseus,"Lots of cloud coverage, very very little visible objects in sky","Raining, a little cloudy, near  building, a few trees, lots of street lights and building lights",United States - Pennsylvania,16801
217019,GAN,15815,33.7846,-111.994,569.674,1/24/2020,22:21,1/25/2020,5:21,5,,,clear,Orion,sky glow from Pheonix (24 miles away) due south but mostly blocked by my house.,Suburban to the point of almost being rural. House porch light on a few houses down to the west. House a feww feet away blocking lower south view. Major city 24 miles south.,United States - Arizona,85331
217020,SQM,15816,35.5611,-121.107,3.6806,1/24/2020,21:30,1/25/2020,5:30,6,21.39,4299,clear,Perseus,very good transparency,extremely dark residential neighborhood along seacoast,United States - California,93428
217021,GAN,15818,40.7172,-74.0021,5.6207,1/20/2020,18:42,1/20/2020,23:42,-9999,,,1/4 of sky,Perseus,,,United States - New York,10013
217023,GAN,15820,40.8076,-77.8486,331.617,1/22/2020,22:18,1/23/2020,3:18,2,,,clear,Perseus,,,United States - Pennsylvania,16802
217024,GAN,15821,40.8076,-77.8486,331.617,1/25/2020,2:46,1/25/2020,7:46,2,,,1/2 of sky,Perseus,,,United States,16802
217043,GAN,15843,43.0586,-87.9962,217.873,1/24/2020,18:36,1/25/2020,0:36,-9999,,,over 1/2 of sky,Perseus,Full clouds.,"Suburban, snow cover, trees.",United States - Wisconsin,53213
217052,GAN,15857,35.2198,-111.635,2167.67,1/24/2020,21:05,1/25/2020,4:05,7,,,clear,Perseus,There was a haze in the Southeast direction above the city line.,Buffalo Park is an open field away from any lighting.,United States - Arizona,86601
217058,SQM,15864,31.5881,-111.081,1134.24,1/24/2020,22:00,1/25/2020,5:00,6,21.4,1234,clear,Perseus,clear,rural,United States - Arizona,85646
217074,GAN,15883,35.1983,-111.651,2103.93,1/23/2020,19:51,1/24/2020,2:51,3,,,clear,Orion,A little hazy near horizon but mostly clear,"Street light 20 feet  to left, blocked",United States - Arizona,86001
217079,GAN,15888,35.1799,-111.656,2091.87,1/22/2020,23:01,1/23/2020,6:01,4,,,clear,Perseus,No clouds.,On top of a bridge over the road. There were several lights on the bridge and one or two street lamps near the road.,United States - Arizona,86011
217083,GAN,15894,40.798,-77.8567,336.831,1/25/2020,19:44,1/26/2020,0:44,2,,,over 1/2 of sky,Perseus,Very cloudy!,On a busy main street with lit up buildings and many headlights.,United States - Pennsylvania,16801
217086,GAN,15897,43.0507,-88.0021,208.057,1/25/2020,19:20,1/26/2020,1:20,-9999,,,over 1/2 of sky,Perseus,Cloudy,"Suburban, snow cover, some trees",United States - Wisconsin,53213
217087,GAN,15899,35.1819,-111.654,2107.92,1/25/2020,18:39,1/26/2020,1:39,3,,,1/4 of sky,Perseus,There are some pieces of clouds in the sky.,There are some street lights.,United States - Arizona,86011
217088,GAN,15900,40.811,-77.8932,364.016,1/25/2020,20:43,1/26/2020,1:43,-9999,,,over 1/2 of sky,Perseus,,,United States - Pennsylvania,16803
217090,GAN,15902,40.3044,-74.32,30.9499,1/25/2020,20:39,1/26/2020,1:39,-9999,,,over 1/2 of sky,Orion,Extremely cloudy,Busy street about 20m from location.,United States - New Jersey,07726
217091,GAN,15903,40.8006,-77.8984,375.513,1/25/2020,20:47,1/26/2020,1:47,2,,,over 1/2 of sky,Perseus,,,United States - Pennsylvania,16803
217092,GAN,15904,47.1723,-122.187,186.299,1/22/2020,19:00,1/23/2020,3:00,5,,,1/2 of sky,Perseus,Cloudy and cold.,"Urban, one street light, multiple porch lights",United States - Washington,98391
217094,GAN,15906,47.1723,-122.187,186.458,1/21/2020,19:30,1/22/2020,3:30,4,,,1/4 of sky,Perseus,A little cloudy but not alot,"Urban, one street light, multiple porch lights",United States - Washington,98391
217095,GAN,15907,47.1723,-122.187,186.709,1/23/2020,20:00,1/24/2020,4:00,7,,,over 1/2 of sky,Perseus,I can't see anything it is so cloudy,"Urban, zero street lights, 2 porch lights",United States - Washington,98391
217097,GAN,15909,47.1723,-122.187,186.23,1/22/2020,20:10,1/23/2020,4:10,5,,,1/2 of sky,Perseus,Cloudy and cold,"Urban, one street light, multiple porch lights",United States - Washington,98391
217099,GAN,15911,47.1723,-122.187,186.28,1/20/2020,19:33,1/21/2020,3:33,5,,,over 1/2 of sky,Perseus,Cloudy and cold,"Urban, one street light, multiple porch lights",United States - Washington,98391
217100,GAN,15912,47.184,-122.328,33.4092,1/25/2020,18:13,1/26/2020,2:13,-9999,,,over 1/2 of sky,Orion,Sky was completely cloudy and raining.,Suburban. Street doesnt have many houses on it - Neighbors have land in between. Majority of the light is coming from the WSU Puyallup Campus. I turned my house lights off. Still unable to see anything. Completely cloudy and raining.,United States - Washington,98371
217102,GAN,15914,47.1842,-122.327,33.8691,1/25/2020,18:19,1/26/2020,2:19,-9999,,,over 1/2 of sky,Perseus,Completely cloudy and raining.,"AT-     Street lights are dim, not too many houses on this street and property between each house. (suburb area)! Most of the light was coming from the WSU Agricultural Campus across the street from my house.",United States,98371
217103,GAN,15915,26.2387,-98.2385,36.082,1/25/2020,20:20,1/26/2020,2:20,-9999,,,over 1/2 of sky,Orion,Haze,"Suburbs, street lights nearby witching 50 ft. Trees",United States - Texas,78501
217104,GAN,15916,47.1842,-122.327,33.6647,1/25/2020,17:10,1/26/2020,1:10,1,,,over 1/2 of sky,Perseus,The sky is completely cloudy and its now raining.,AT-     Sun has completely set. Only light is coming from the WSU Agricultural Campus down the street. House light are off at this point. Turned off all house lights. Still quite a bit of light reflecting off the clouds.,United States,98371
217105,GAN,15917,26.6225,-80.1792,6.93029,1/25/2020,21:31,1/26/2020,2:31,5,,,clear,Perseus,,,United States - Florida,33467
217106,GAN,15918,26.6225,-80.1792,6.93029,1/25/2020,21:34,1/26/2020,2:34,4,,,clear,Perseus,,LGC,United States - Florida,33467
217107,GAN,15919,26.6225,-80.1792,6.93029,1/25/2020,21:37,1/26/2020,2:37,5,,,clear,Perseus,,"Rural, no houses nearby , open fields. LGC",United States - Florida,33467
217108,GAN,15920,30.459,-88.8889,7.43545,1/25/2020,21:38,1/26/2020,2:38,5,,,clear,Perseus,Feels as if you can see every star in the sky. It is extremely dark out.,"Rural, no houses nearby or street lights, open field, no cars around. LGC",United States - Mississippi,39540
217109,GAN,15921,26.5381,-81.8993,0.983192,1/25/2020,21:38,1/26/2020,2:38,5,,,clear,Perseus,Feels as if you can see every star in the sky. It is extremely dark out.,"Rural, no houses nearby or street lights, open field, no cars around. LGC",United States - Florida,33907
217110,GAN,15922,40.8037,-77.8572,348.273,1/25/2020,21:29,1/26/2020,2:29,2,,,1/4 of sky,Perseus,Thin wispy clouds overhead,Suburban setting near apartment buildings with lights on the buildings about 30 feet apart as well as 2 nearby shielded streetlights,United States - Pennsylvania,16802
217111,GAN,15923,40.8037,-77.8572,348.32,1/25/2020,21:29,1/26/2020,2:29,2,,,1/4 of sky,Perseus,Thin wispy clouds overhead,Suburban setting near apartment buildings with lights on the buildings about 30 feet apart as well as 2 nearby shielded streetlights,United States - Pennsylvania,16802
217112,GAN,15924,28.0842,-81.303,17.8878,1/25/2020,21:42,1/26/2020,2:42,4,,,1/4 of sky,Perseus,There was clouds and brighter lights surrounding my viewing location so it was harder to see the stars.,LGC . There is a dam here with lights surrounding it. It is still really dark out but closer to the highway. Due to this it is harder to see the stars.,United States - Florida,null
217113,GAN,15925,35.1822,-111.655,2102.25,1/25/2020,19:49,1/26/2020,2:49,4,,,clear,Perseus,The sky is very clear. There is almost nothing in the sky clouding my vision from the stars.,"I did my observation outside of a library in Flagstaff Arizona. There are some street lights, but I was able to distance myself from the street lights to get a clearer picture of the constellations above. I saw them pretty well! Although I have definitely seen them much more clearly before in my life.",United States - Arizona,86011
217114,GAN,15926,40.7627,-77.891,386.809,1/25/2020,21:48,1/26/2020,2:48,1,,,1/4 of sky,Perseus,Slight haze but clear right above,Suburban state college,United States - Pennsylvania,16801
217115,GAN,15927,35.2133,-111.588,2066.3,1/25/2020,20:12,1/26/2020,3:12,4,,,clear,Perseus,"sky is clear, no cloud coverage. milky way barely visible",Some lights outside of apartment complex 10 yards away. Close to highway,United States - Arizona,86004
217116,GAN,15928,32.4021,-81.8349,68.6079,1/25/2020,21:38,1/26/2020,5:38,5,,,clear,Perseus,Feels as if you can see every star in the sky. Extremely dark out!,"LGC. Rural, no houses or street lights nearby, open fields, no cars around. A bit windy and ""chilly"".",United States - Georgia,30458
217117,GAN,15929,35.0894,-111.701,2069.92,1/25/2020,20:21,1/26/2020,3:21,4,,,clear,Orion,"Seemed hazy overall, there was a white glow to it.",Kachina Village - no street lights but there are decorative lights on houses and many trees block patches of sky.,United States - Arizona,86005
217118,GAN,15930,32.5742,-97.073,180.92,1/25/2020,21:22,1/26/2020,3:22,-9999,,,over 1/2 of sky,Perseus,"Clouds covered the entirety of the sky, unable to see any stars.",Backyard was completely dark.,United States - Texas,76063
217119,GAN,15931,28.0842,-81.303,17.8878,1/25/2020,19:22,1/26/2020,3:22,4,,,1/4 of sky,Perseus,There was clouds and bright lights surrounding my viewing location which made it harder to view the consolation.,LGC. There is a dam here with lights surrounding it. It is still really dark out but as it is closer to a highway there is some light interference. Still windy here!,United States - Florida,null
217120,GAN,15933,47.1842,-122.327,33.6647,1/25/2020,17:10,1/26/2020,1:10,1,,,over 1/2 of sky,Perseus,The sky is completely cloudy and its now raining.,AT-     Sun has completely set. Only light is coming from the WSU Agricultural Campus down the street. House light are off at this point. Turned off all house lights. Still quite a bit of light reflecting off the clouds.,United States,98371
217121,GAN,15934,28.2384,-81.2921,22.0982,1/25/2020,21:55,1/26/2020,5:55,2,,,1/2 of sky,Perseus,"Cloudy, very hard to see the stars. Hard to try and focus on constellation as it is so bright from the street lights.","Suburban area, many street lights and cars surrounding. As it is near an intersection there is very bright lights from both the cars and the street lamps. Not windy at all.",United States - Florida,34769
217122,GAN,15935,47.1842,-122.327,33.6346,1/25/2020,19:27,1/26/2020,3:27,-9999,,,over 1/2 of sky,Perseus,Rain has finally stopped. But cloud cover is still full. Cannot see any starts at this time.,AT- Few more lights are on now vs an hour ago. Sky is very much lit up by WSU Agricultural Campus now. Reflection from light off clouds actually seem more vibrant now.,United States,98371
217123,GAN,15936,35.1795,-111.656,2093.68,1/25/2020,20:30,1/26/2020,3:30,3,,,clear,Perseus,,,United States - Arizona,86011
217124,GAN,15937,32.4021,-81.8349,68.6079,1/25/2020,21:38,1/26/2020,5:38,5,,,clear,Perseus,Feels as if you can see every star in the sky. Extremely dark out!,"LGC. Rural, no houses or street lights nearby, open fields, no cars around. A bit windy and ""chilly"".",United States - Georgia,30458
217125,GAN,15938,30.1034,-82.7658,31.1943,1/25/2020,19:37,1/26/2020,3:37,5,,,clear,Perseus,Feels as if you can see every star in the sky. Extremely dark out!,"LGC. Rural, no houses or street lights nearby, open fields, no cars around. A bit windy and ""chilly"".",United States - Florida,32024
217126,GAN,15939,30.1034,-82.7658,31.1943,1/25/2020,21:37,1/26/2020,5:37,5,,,clear,Perseus,Feels as if you can see every star in the sky. Extremely dark out!,"LGC. Rural, no houses or street lights nearby, open fields, no cars around. A bit windy and ""chilly"".",United States - Florida,32024
217127,GAN,15940,28.0842,-81.303,17.8878,1/25/2020,21:45,1/26/2020,5:45,4,,,1/4 of sky,Perseus,There was clouds and bright lights surrounding my viewing location which made it harder to view the consolation.,LGC. There is a dam here with lights surrounding it. It is still really dark out but as it is closer to a highway there is some light interference. Still windy here!,United States - Florida,null
217128,GAN,15941,40.7904,-77.8666,353.242,1/25/2020,22:36,1/26/2020,3:36,1,,,over 1/2 of sky,Perseus,,,United States - Pennsylvania,16801
217129,GAN,15942,39.6821,-76.4211,152.345,1/25/2020,22:42,1/26/2020,3:42,5,,,clear,Perseus,,Rural,United States - Maryland,21132
217130,SQM,15943,32.6104,-110.797,1329.86,1/25/2020,21:03,1/26/2020,4:03,6,21.09,0bd9,clear,Orion,"Mostly clear, high humidity.",Rural,United States - Arizona,85623
217131,GAN,15944,35.098,-111.688,2074.53,1/25/2020,21:12,1/26/2020,4:12,3,,,clear,Perseus,,,United States - Arizona,null
217132,SQM,15946,38.8578,-104.784,1885.19,1/25/2020,20:50,1/26/2020,3:50,3,17.94,878,1/4 of sky,Perseus,Clouds 1/4 of sky.,"Urban.  Street lights at each end of street, one block long.  Reading from inside rolloff roof observatory.  No snow on ground",United States - Colorado,80909
217133,SQM,15947,38.8578,-104.784,1885.19,1/25/2020,20:50,1/26/2020,3:50,3,17.94,878,1/4 of sky,Orion,25% high thin clouds,Street one block long. Street light at each end of block. Reading from inside rolloff roof observatory.,United States - Colorado,80909
217137,GAN,15951,34.8744,-111.797,1389.51,1/25/2020,20:35,1/26/2020,3:35,4,,,clear,Orion,"Clear skies, haze from the south with clouds on the horizon reflecting light from phoenix.  A little dusty","Trailhead, tucked in a residential area.  A few lights from surrounding area, some windows bleeding light and some car headlights.",United States - Arizona,86336
217138,GAN,15952,47.2529,-122.444,75.0805,1/22/2020,21:00,1/23/2020,5:00,-9999,,,over 1/2 of sky,Perseus,"cloudy, can't see stars",,United States - Washington,98402
217139,GAN,15953,47.2529,-122.444,75.0805,1/23/2020,19:30,1/24/2020,3:30,2,,,1/2 of sky,Perseus,,,United States - Washington,98402
217140,GAN,15954,47.2529,-122.444,75.0805,1/24/2020,22:00,1/25/2020,6:00,3,,,1/2 of sky,Perseus,,,United States - Washington,98402
217141,GAN,15955,35.1866,-111.655,2102.55,1/25/2020,22:30,1/26/2020,5:30,5,,,clear,Perseus,,,United States - Arizona,86011
217142,GAN,15957,35.1813,-111.655,2098.58,1/25/2020,23:00,1/26/2020,6:00,5,,,clear,Orion,Dark and clear,Various path lighting in visibility; shielded vision from all light sources when looking at Orion.,United States - Arizona,86011
217143,GAN,15959,36.2596,-119.871,63.0698,1/25/2020,22:31,1/26/2020,6:31,3,,,1/2 of sky,Orion,"Clouds, cirrostratus, NW","Rural military base, not far from well-lit entry point",United States - California,93246
217144,GAN,15961,32.5555,-97.0824,179.076,1/26/2020,1:35,1/26/2020,7:35,-9999,,,over 1/2 of sky,Perseus,Wind was calm and moving north.,,United States - Texas,null
217145,GAN,15963,35.1807,-111.645,2096.92,1/25/2020,8:12,1/25/2020,15:12,6,,,clear,Orion,No clouds that I could see. Some haze to my right because of the apartment complex.,Very little light in this area. In between two street lights spaced far apart. There's a forested area to my left and a dimly lit  apartment complex to my right.,United States - Arizona,86001
217149,SQM,15968,39.0135,-77.0881,74.8254,1/25/2020,20:45,1/26/2020,1:45,2,18.3,,clear,Orion,Clear but hazy,Suburban with streetlight about 200 feet from observation and closest porch light 100 feet.,United States - Maryland,20895
217165,GAN,15989,32.5957,-97.1505,204.383,1/26/2020,22:10,1/27/2020,4:10,2,,,1/2 of sky,Perseus,Had a slight haze,Street lights in front of stores,United States - Texas,76063
217166,GAN,15990,38.5347,-105.999,2159.8,1/24/2020,21:44,1/25/2020,4:44,2,,,1/4 of sky,Perseus,,"Rural, by a gas station, out from underneath the gas station lights, but lights still impacted what I could see, could not see the Milky Way",United States - Colorado,81201
217167,GAN,15991,38.5347,-105.999,2159.8,1/24/2020,21:58,1/25/2020,4:58,5,,,1/4 of sky,Perseus,,"Rural, on a camping ground, absolutely no lights around me",United States - Colorado,81201
217168,SQM,15993,31.5881,-111.081,1134.24,1/25/2020,23:00,1/26/2020,6:00,6,21.22,1769,clear,Perseus,"no clouds, sky domes N Tucson 80km S Nogales 30km",semi-rural,United States - Arizona,85646
217169,SQM,15994,31.5881,-111.081,1134.24,1/26/2020,12:18,1/26/2020,19:18,7,21.22,1769,clear,Perseus,"no clouds, sky domes N Tucson 80km S Nogales 30km",semi-rural,United States - Arizona,85646
217170,SQM,15995,31.5881,-111.081,1134.24,1/25/2020,23:00,1/26/2020,6:00,7,21.22,1769,clear,Perseus,"no clouds, sky domes N Tucson 80km S Nogales 30km",semi-rural,United States - Arizona,85646
217182,GAN,16014,35.1837,-111.653,2110.84,1/19/2020,20:00,1/20/2020,3:00,5,,,clear,Perseus,sky is clear and the star is very easy to see,in a dark place near the barry lutz telescope,United States,86011
217190,GAN,16024,32.5552,-97.1359,202.504,1/26/2020,18:55,1/27/2020,0:55,1,,,1/2 of sky,Perseus,Very few stars because of clouds,Suburban,United States - Texas,76063
217192,GAN,16026,47.2156,-122.538,124.035,1/25/2020,14:35,1/25/2020,22:35,2,,,1/2 of sky,Orion,,,United States - Washington,98466
217193,GAN,16027,47.2156,-122.538,123.803,1/26/2020,17:29,1/27/2020,1:29,5,,,1/2 of sky,Perseus,,,United States - Washington,98466
217194,GAN,16028,47.2155,-122.538,123.895,1/26/2020,18:20,1/27/2020,2:20,3,,,1/2 of sky,Perseus,,,United States - Washington,98466
217196,GAN,16030,32.5585,-97.1322,191.029,1/26/2020,19:43,1/27/2020,1:43,2,,,1/4 of sky,Orion,Few Clouds,"Suburban, few streetlights",United States - Texas,76063
217197,GAN,16031,32.5574,-97.0695,173.508,1/26/2020,20:05,1/27/2020,2:05,3,,,clear,Perseus,clear,"backyard, house lights on, but not outside lights",United States - Texas,76063
217199,GAN,16034,33.6417,-112.035,436.631,1/26/2020,19:38,1/27/2020,2:38,3,,,1/4 of sky,Perseus,,,United States - Arizona,85022
217200,GAN,16035,39.9205,-105.087,1643.08,1/19/2020,20:15,1/20/2020,3:15,2,,,clear,Perseus,,,United States - Colorado,80020
217201,GAN,16036,32.585,-97.0766,168.73,1/26/2020,21:50,1/27/2020,3:50,3,,,clear,Perseus,The sky was clear this night,The location was a good place to see it,United States - Texas,76063
217202,SQM,16038,32.5717,-97.0602,171.62,1/26/2020,22:56,1/27/2020,4:56,-9999,6.0,,1/4 of sky,Orion,,,United States - Texas,76063
217245,GAN,16087,44.0548,-121.327,1105.16,1/27/2020,4:28,1/27/2020,12:28,-9999,,,over 1/2 of sky,Perseus,,Urban,United States - Oregon,97703
217253,GAN,16095,32.5756,-97.052,170.385,1/27/2020,7:01,1/27/2020,13:01,1,,,1/4 of sky,Perseus,Few clouds and steady wind conditions,Suburban area with a little bit of street lamps and house porch lights,United States - Texas,75054
217265,GAN,16108,41.7554,-71.9226,60.6461,1/24/2020,20:20,1/25/2020,1:20,4,,,clear,Orion,,"rural, porch lights",United States - Connecticut,06234
217266,GAN,16109,41.824,-71.4128,2.79031,1/26/2020,18:00,1/26/2020,23:00,4,,,clear,Orion,,"city,sereet lights",United States - Rhode Island,02902
217267,GAN,16111,40.0854,-105.355,2168.31,1/27/2020,8:25,1/27/2020,15:25,-9999,,,over 1/2 of sky,Perseus,Really cloudy,"Thornton,Colorado",United States - Colorado,null
217268,GAN,16113,39.4179,-105.522,2475.3,1/27/2020,8:31,1/27/2020,15:31,-9999,,,over 1/2 of sky,Perseus,Really Cloudy,"Thornton ,Colorado",United States - Colorado,80475
217269,GAN,16114,38.778,-105.61,2922.86,1/27/2020,8:33,1/27/2020,15:33,-9999,,,over 1/2 of sky,Perseus,Really cloudy,"Thornton , Colorado",United States - Colorado,null
217270,GAN,16116,41.8205,-71.9257,87.3038,1/26/2020,21:30,1/27/2020,2:30,4,,,clear,Orion,,Rural,United States - Connecticut,06234
217271,GAN,16120,36.053,-107.956,1925.46,1/23/2020,7:30,1/23/2020,14:30,-9999,,,clear,Perseus,Conditions were mostly clear with less than 5% clouds taking up less than than 1/4  of the sky. There was a very thin haze due to humidity particulates from precipitation with in the last week. Conditions were ideal because of how clear it was and  because it was the night before the full moon.,,United States - New Mexico,null
217272,SQM,16121,36.053,-107.956,1925.46,1/23/2020,7:30,1/23/2020,14:30,7,21.78,,clear,Orion,Conditions were mostly clear with less than 5% clouds taking up less than than 1/4  of the sky. There was a very thin haze due to humidity particulates from precipitation with in the last week. Conditions were ideal because of how clear it was and  because it was the night before the full moon so the sky was very dark.,"Above Kin Kletso  36 degrees o3'55""N  107 degrees 58' 09"" W    Reading was taken facing the North",United States - New Mexico,null
217273,GAN,16122,41.7779,-71.9849,131.037,1/24/2020,18:31,1/24/2020,23:31,3,,,1/4 of sky,Orion,,Rural,United States - Connecticut,06234
217274,SQM,16123,36.053,-107.956,1925.46,1/23/2020,7:30,1/23/2020,14:30,7,21.45,,clear,Perseus,Conditions were mostly clear with less than 5% clouds taking up less than than 1/4  of the sky. There was a very thin haze due to humidity particulates from precipitation with in the last week. Conditions were ideal because of how clear it was and  because it was the night before the full moon so the sky was very dark.,"Above Kin Klesto  36 degrees 03' 55""N  107 degrees 58' 09"" W    Reading average was taken facing the East",United States - New Mexico,null
217275,SQM,16124,36.053,-107.956,1925.46,1/23/2020,7:30,1/23/2020,14:30,7,21.45,,clear,Orion,Conditions were mostly clear with less than 5% clouds taking up less than than 1/4 of the sky. There was a very thin haze due to humidity particulates from precipitation with in the last week. Conditions were ideal because of how clear it was and because it was the night before the full moon so the sky was very dark.,"Above Kin Kletso    36 degrees 03' 55"" N  107 degrees 58' 09"" W    Reading Average was taken from the East",United States - New Mexico,null
217276,SQM,16125,36.053,-107.956,1925.46,1/23/2020,7:30,1/23/2020,14:30,7,21.59,,clear,Perseus,Conditions were mostly clear with less than 5% clouds taking up less than than 1/4 of the sky. There was a very thin haze due to humidity particulates from precipitation with in the last week. Conditions were ideal because of how clear it was and because it was the night before the full moon so the sky was very dark.,"Kin Kletso  36 degrees 03' 55"" N  107 degrees 58' 09""W    Reading average facing the South",United States - New Mexico,null
217277,SQM,16126,36.053,-107.956,1925.46,1/23/2020,7:30,1/23/2020,14:30,7,21.59,,clear,Orion,Conditions were mostly clear with less than 5% clouds taking up less than than 1/4 of the sky. There was a very thin haze due to humidity particulates from precipitation with in the last week. Conditions were ideal because of how clear it was and because it was the night before the full moon so the sky was very dark.,"Above Kin Kletso  36 degrees 03'55"" N  107 degrees 58'09""W    Reading average was facing the south",United States - New Mexico,null
217278,SQM,16127,36.053,-107.956,1925.46,1/23/2020,7:30,1/23/2020,14:30,7,21.31,,clear,Orion,Conditions were mostly clear with less than 5% clouds taking up less than than 1/4 of the sky. There was a very thin haze due to humidity particulates from precipitation with in the last week. Conditions were ideal because of how clear it was and because it was the night before the full moon so the sky was very dark.,"Above Kin Kletso   36 degrees 03'55""N  107 degrees 58'09""W    Reading Average facing West",United States - New Mexico,null
217279,SQM,16128,36.053,-107.956,1925.46,1/23/2020,10:00,1/23/2020,17:00,7,21.6,,clear,Orion,Conditions were mostly clear with less than 5% clouds taking up less than than 1/4 of the sky. There was a very thin haze due to humidity particulates from precipitation with in the last week. Conditions were ideal because of how clear it was and because it was the night before the full moon so the sky was very dark.,"Pueblo Alto  36 degrees 04'12"" N  107 degrees 57'29""W    Visible light from the nearby cities    Reading Average from the North",United States - New Mexico,null
217280,SQM,16129,36.053,-107.956,1925.46,1/23/2020,10:00,1/23/2020,17:00,7,21.73,,clear,Orion,Conditions were mostly clear with less than 5% clouds taking up less than than 1/4 of the sky. There was a very thin haze due to humidity particulates from precipitation with in the last week. Conditions were ideal because of how clear it was and because it was the night before the full moon so the sky was very dark.,"Pueblo Alto  36 degrees 04'12""N  107 degrees 57'29""W    Reading Average from the East",United States - New Mexico,null
217281,SQM,16130,36.053,-107.956,1925.46,1/23/2020,10:00,1/23/2020,17:00,7,21.61,,clear,Orion,Conditions were mostly clear with less than 5% clouds taking up less than than 1/4 of the sky. There was a very thin haze due to humidity particulates from precipitation with in the last week. Conditions were ideal because of how clear it was and because it was the night before the full moon so the sky was very dark.,"Pueblo Alto     36 degrees 04'12""N  107 degrees 57'29""W    Reading Average from the South",United States - New Mexico,null
217282,SQM,16131,36.053,-107.956,1925.46,1/23/2020,10:00,1/23/2020,17:00,7,21.47,,clear,Orion,Conditions were mostly clear with less than 5% clouds taking up less than than 1/4 of the sky. There was a very thin haze due to humidity particulates from precipitation with in the last week. Conditions were ideal because of how clear it was and because it was the night before the new moon so the sky was very dark.,"Pueblo Alto  36 degrees 04'12""N  107 degrees 57'29""W    Reading Average from the West",United States - New Mexico,null
217283,SQM,16132,36.053,-107.956,1925.46,1/23/2020,10:00,1/23/2020,17:00,7,21.49,,clear,Orion,Conditions were mostly clear with less than 5% clouds taking up less than than 1/4 of the sky. There was a very thin haze due to humidity particulates from precipitation with in the last week. Conditions were ideal because of how clear it was and because it was the night before the new moon so the sky was very dark.,"Water Tank  36 degrees 01'53""N  107 degrees 54'30""W    Reading Average from the North  Still able to see surrounding lights of Nageezi and other cities",United States - New Mexico,null
217284,SQM,16133,36.053,-107.956,1925.46,1/23/2020,11:30,1/23/2020,18:30,7,21.49,,clear,Orion,Conditions were mostly clear with less than 5% clouds taking up less than than 1/4 of the sky. There was a very thin haze due to humidity particulates from precipitation with in the last week. Conditions were ideal because of how clear it was and because it was the night before the new moon so the sky was very dark.,"Water tank  36 degrees 01'53""N  107 degrees 54'30""W    Were still able to see lights from outside of the park and the surrounding town of Nageezi and other cities.  Reading average from North",United States - New Mexico,null
217285,SQM,16134,36.053,-107.956,1925.46,1/23/2020,11:30,1/23/2020,18:30,7,21.49,,clear,Orion,Conditions were mostly clear with less than 5% clouds taking up less than than 1/4 of the sky. There was a very thin haze due to humidity particulates from precipitation with in the last week. Conditions were ideal because of how clear it was and because it was the night before the new moon so the sky was very dark.,"Water tank  36 degrees 01'53""N  107 degrees 54'30""W    Reading average from the East",United States - New Mexico,null
217286,SQM,16135,36.053,-107.956,1925.46,1/23/2020,11:30,1/23/2020,18:30,7,21.5,,clear,Orion,Conditions were mostly clear with less than 5% clouds taking up less than than 1/4 of the sky. There was a very thin haze due to humidity particulates from precipitation with in the last week. Conditions were ideal because of how clear it was and because it was the night before the new moon so the sky was very dark.,"Water tank  36 degrees 01'53""N  1-7 degrees 54'30"" W    Reading Average from the South",United States - New Mexico,null
217287,SQM,16136,36.053,-107.956,1925.46,1/23/2020,11:30,1/23/2020,18:30,7,21.48,,clear,Orion,Conditions were mostly clear with less than 5% clouds taking up less than than 1/4 of the sky. There was a very thin haze due to humidity particulates from precipitation with in the last week. Conditions were ideal because of how clear it was and because it was the night before the new moon so the sky was very dark.,"Water tank  36 degrees 04'12""N  107 degrees 57'29""W    Reading Average from the West",United States - New Mexico,null
217291,GAN,16142,35.2054,-111.655,2114.96,1/25/2020,20:00,1/26/2020,3:00,6,,,clear,Orion,clear,dark pond/ forest area,United States - Arizona,86001
217292,GAN,16143,35.2054,-111.655,2114.96,1/25/2020,20:00,1/26/2020,3:00,6,,,clear,Orion,clear,dark pond/ forest area,United States - Arizona,86001
217297,GAN,16148,35.2198,-111.635,2167.67,1/23/2020,20:28,1/24/2020,3:28,4,,,clear,Orion,"Clear skies, no clouds in sight. Pretty bright and easy to see.","Rural area, light pollution from east side. Bathroom light coming from left side about 78 ft away. Parking lot at 3 o'clock about 100 ft away.",United States - Arizona,86601
217304,GAN,16157,44.8348,-93.0824,280.697,1/27/2020,18:27,1/28/2020,0:27,2,,,1/2 of sky,Perseus,Very cloudy and there's a sky glow.,It was still a bit light outside because of street lights and house lights.,United States - Minnesota,55077
217305,GAN,16158,44.8389,-93.0926,276.511,1/27/2020,18:29,1/28/2020,0:29,1,,,1/2 of sky,Perseus,Very cloudy and there is a light sky glow.,It was still light outside. There are street lights about 100 meters away. There are houses nearby.,United States - Minnesota,55077
217307,GAN,16160,32.5102,-97.1178,179.703,1/27/2020,18:49,1/28/2020,0:49,2,,,1/4 of sky,Perseus,,,United States - Texas,76084
217308,GAN,16161,32.5889,-97.0364,167.612,1/27/2020,18:48,1/28/2020,0:48,1,,,clear,Orion,Very clear but light pollution because of light in area,City,United States - Texas,75054
217310,GAN,16165,32.5701,-97.0621,168.487,1/27/2020,20:39,1/28/2020,2:39,2,,,over 1/2 of sky,Perseus,"Pretty cloudy , hazy due to fog earlier , only a few key stars of sprain visible","Suburban, streetlights still on, Mildly cloudy, some empty spaces close by to look in the dark.",United States - Texas,76063
217311,SQM,16166,31.5881,-111.081,1134.24,1/27/2020,1:30,1/27/2020,8:30,7,21.5,1769,clear,Perseus,domes N Tucson S Nogales,semi rural,United States - Arizona,85646
217312,GAN,16167,32.5594,-97.06,170.656,1/27/2020,21:08,1/28/2020,3:08,2,,,over 1/2 of sky,Perseus,Really hard to see through but has patches with some stars can be seen,Suburban/ urban area with 2 street lights and mostly house lights,United States - Texas,76063
217313,GAN,16168,38.7448,-105.682,3047.51,1/27/2020,20:08,1/28/2020,3:08,-9999,,,over 1/2 of sky,Perseus,,"Thornton, Colorado",United States - Colorado,null
217314,SQM,16169,33.4171,-111.862,374.836,1/27/2020,20:03,1/28/2020,3:03,2,17.84,693,1/4 of sky,Orion,,,United States - Arizona,85201
217315,GAN,16170,32.6009,-97.0486,171.305,1/27/2020,21:52,1/28/2020,3:52,2,,,1/2 of sky,Perseus,"Scattered clouds, not a lot of light pollution.","Suburbs, neighborhood, very few street lights.",United States - Texas,75054
217316,GAN,16171,32.5728,-97.0669,177.059,1/27/2020,22:25,1/28/2020,4:25,-9999,,,over 1/2 of sky,Perseus,There was like a wave of really dark red covering the sky.,Suburban area with two street lights and light coming from windows.,United States - Texas,76063
217318,GAN,16173,35.1786,-111.654,2104.77,1/24/2020,19:36,1/25/2020,2:36,5,,,clear,Orion,"It was a completely clear sky tonight and the stars were shinning brightly. With the help of  SkyView, I was able to find Orion and many other constellations that were out tonight.","Flagstaff has the most beautiful night skies. NAU's yellow ambient lighting has less glare making it easier to see the stars. Since Flagstaff is the world's first international Dark Sky City, the sights you see at night can not be beaten.",United States - Arizona,86011
217319,GAN,16177,44.0548,-121.327,1105.16,1/28/2020,4:26,1/28/2020,12:26,1,,,1/2 of sky,Perseus,,Urban,United States - Oregon,97703
217320,GAN,16178,32.5844,-97.0745,178.401,1/28/2020,6:56,1/28/2020,12:56,-9999,,,over 1/2 of sky,Perseus,,,United States - Texas,76063
217321,GAN,16179,32.5575,-97.1315,204.275,1/27/2020,9:35,1/27/2020,15:35,3,,,1/4 of sky,Perseus,it was cloudy,,United States - Texas,76063
217329,GAN,16191,35.2188,-111.633,2172.27,1/18/2020,19:30,1/19/2020,2:30,5,,,clear,Orion,,,United States - Arizona,86601
217331,GAN,16193,35.1848,-111.664,2109.15,1/17/2020,21:10,1/18/2020,4:10,5,,,clear,Orion,No clouds at all. Clear view of the sky and Orion was quite bright.,,United States - Arizona,86001
217341,SQM,16204,35.543,-120.74,282.019,1/27/2020,23:22,1/28/2020,7:22,6,21.04,6688,clear,Perseus,Cloud cover = clear overhead with just some distant clouds near the SE horizon. No wind. Temp = 39 degrees F.  Humidity = 100%.  SQM readings taken at zenith (average of 5 readings). Castor and Pollux very near zenith.,"West boundary of Templeton. Rural and urban residential interface zone. No street lights. There are some yard lights from the nearby homes, and campus lighting from Vineyard Elementary School located about 300 yards to the WSW.",United States - California,93465
217343,SQM,16206,35.0998,-120.599,22.2886,1/26/2020,20:24,1/27/2020,4:24,6,20.23,6688,clear,Perseus,Clear. Average to good transparency. Average to good seeing.,Residential neighborhood in SE Oceano. Street lamps and yard lights scattered throughout the neighborhood.,United States - California,93421
217346,SQM,16209,35.4586,-120.668,299.368,1/27/2020,1:02,1/27/2020,9:02,6,20.96,6688,clear,Perseus,Clear.  SQM measurements aimed at zenith. Average of 5 readings.,East parking lot of San Gabriel Elementary School. Used nearby landscaping to shield location from intrusive lights in the neighborhood.,United States - California,93422
217347,SQM,16210,35.5462,-120.912,472.353,1/25/2020,23:48,1/26/2020,7:48,6,21.61,6688,clear,Perseus,Clear. SQM readings taken at zenith. Average of 5 measurements.,"Rural. Remote. Coastal hills. Miles removed from Cambria, Harmony, & Cayucos. An area of large ranches and open space. About 1 mile west of the Hwy 46W summit.",United States - California,93435
217348,GAN,16212,44.2706,-71.3033,1912.48,1/28/2020,18:30,1/28/2020,23:30,-9999,,,over 1/2 of sky,Orion,"Really cloudy, kinda windy, no rain, no snowing, no moon. Sky looks grayish. Darker colors at night.","MWES, tress, street lamps, school, houses, grassy field, playground, cars, stop signs, warehouses, highway. Colder at night than day time. Stars only seen at night.",United States - New Hampshire,03589
217352,GAN,16216,35.1963,-111.659,2108.91,1/18/2020,22:20,1/19/2020,5:20,4,,,clear,Perseus,,Couple of porch lights in immediate area.,United States - Arizona,86001
217353,GAN,16218,32.5742,-96.9795,217.732,1/28/2020,19:47,1/29/2020,1:47,4,,,1/2 of sky,Perseus,dark with a few clouds in the sky,"neighborhood , lots of trees and cell towers",United States - Texas,75104
217354,GAN,16220,32.5577,-97.1297,200.684,1/28/2020,20:53,1/29/2020,2:53,1,,,1/2 of sky,Perseus,,,United States - Texas,76063
217355,GAN,16221,32.5574,-97.1294,200.132,1/28/2020,20:54,1/29/2020,2:54,1,,,1/2 of sky,Orion,,,United States - Texas,76063
217356,GAN,16222,32.6006,-97.0484,171.333,1/28/2020,20:59,1/29/2020,2:59,2,,,1/2 of sky,Perseus,,,United States - Texas,75054
217357,GAN,16223,32.566,-97.0804,177.681,1/28/2020,21:29,1/29/2020,3:29,-9999,,,over 1/2 of sky,Orion,,,United States - Texas,75054
217358,GAN,16224,32.6078,-97.0443,169.208,1/28/2020,21:39,1/29/2020,3:39,1,,,over 1/2 of sky,Perseus,,"Suburban neighborhood , lake near by and school. Lights near house.",United States - Texas,75054
217359,GAN,16225,32.608,-97.0444,169.787,1/28/2020,21:41,1/29/2020,3:41,1,,,over 1/2 of sky,Perseus,Very cloudy,Suburban neighborhood near lake and school. Many lights near by.,United States - Texas,75054
217360,GAN,16226,32.5617,-97.0675,172.732,1/28/2020,22:06,1/29/2020,4:06,1,,,over 1/2 of sky,Orion,very cloudy,streetlights,United States - Texas,76063
